{
    "features": [
        {
            "type": "Carris_Metropolitana",
            "Longitude": -8.959557,
            "Latitude": 38.754244,
            "INF_NOME": "R. Carlos Manuel Rodrigues Francisco (Escola)",
            "INF_LOCALIDADE": "Alcochete",
            "INF_MUNICIPIO": "Alcochete"
        },
        {
            "type": "Carris_Metropolitana",
            "Longitude": -8.959615,
            "Latitude": 38.754572,
            "INF_NOME": "R. Carlos Manuel Rodrigues Francisco (Ft. Escola)",
            "INF_LOCALIDADE": "Alcochete",
            "INF_MUNICIPIO": "Alcochete"
        },
        {
            "type": "Carris_Metropolitana",
            "Longitude": -8.961806,
            "Latitude": 38.754175,
            "INF_NOME": "R. Dr. Ciprião Figueiredo 13",
            "INF_LOCALIDADE": "Alcochete",
            "INF_MUNICIPIO": "Alcochete"
        },
        {
            "type": "Carris_Metropolitana",
            "Longitude": -8.963687,
            "Latitude": 38.753196,
            "INF_NOME": "R. Prof. Leite Cunha (Biblioteca)",
            "INF_LOCALIDADE": "Alcochete",
            "INF_MUNICIPIO": "Alcochete"
        },
        {
            "type": "Carris_Metropolitana",
            "Longitude": -8.963504,
            "Latitude": 38.753271,
            "INF_NOME": "R. Prof. Leite Cunha (Ft. Biblioteca)",
            "INF_LOCALIDADE": "Alcochete",
            "INF_MUNICIPIO": "Alcochete"
        },
        {
            "type": "Carris_Metropolitana",
            "Longitude": -8.962749,
            "Latitude": 38.750706,
            "INF_NOME": "Escola Básica El Rei D. Manuel I",
            "INF_LOCALIDADE": "Alcochete",
            "INF_MUNICIPIO": "Alcochete"
        },
        {
            "type": "Carris_Metropolitana",
            "Longitude": -8.962783,
            "Latitude": 38.751002,
            "INF_NOME": "Escola Básica El Rei D. Manuel I",
            "INF_LOCALIDADE": "Alcochete",
            "INF_MUNICIPIO": "Alcochete"
        },
        {
            "type": "Carris_Metropolitana",
            "Longitude": -8.962159,
            "Latitude": 38.748855,
            "INF_NOME": "R. da Escola Secundária (X) R. Artur Garrett",
            "INF_LOCALIDADE": "Alcochete",
            "INF_MUNICIPIO": "Alcochete"
        },
        {
            "type": "Carris_Metropolitana",
            "Longitude": -8.961929,
            "Latitude": 38.748866,
            "INF_NOME": "R. da Escola Secundária (X) Estr. da Atalaia",
            "INF_LOCALIDADE": "Alcochete",
            "INF_MUNICIPIO": "Alcochete"
        },
        {
            "type": "Carris_Metropolitana",
            "Longitude": -8.966155,
            "Latitude": 38.748733,
            "INF_NOME": "R. da Cooperação L11",
            "INF_LOCALIDADE": "Alcochete",
            "INF_MUNICIPIO": "Alcochete"
        },
        {
            "type": "Carris_Metropolitana",
            "Longitude": -8.965973,
            "Latitude": 38.7487,
            "INF_NOME": "R. da Cooperação L27",
            "INF_LOCALIDADE": "Alcochete",
            "INF_MUNICIPIO": "Alcochete"
        },
        {
            "type": "Carris_Metropolitana",
            "Longitude": -8.967106,
            "Latitude": 38.748758,
            "INF_NOME": "Escola Básica n.º 2 de Alcochete (Valbom)",
            "INF_LOCALIDADE": "Alcochete",
            "INF_MUNICIPIO": "Alcochete"
        },
        {
            "type": "Carris_Metropolitana",
            "Longitude": -8.966956,
            "Latitude": 38.749364,
            "INF_NOME": "R. da Liberdade Ft. 2",
            "INF_LOCALIDADE": "Alcochete",
            "INF_MUNICIPIO": "Alcochete"
        },
        {
            "type": "Carris_Metropolitana",
            "Longitude": -8.96804,
            "Latitude": 38.750122,
            "INF_NOME": "Av. D. Manuel I (Ft. Hotel)",
            "INF_LOCALIDADE": "Alcochete",
            "INF_MUNICIPIO": "Alcochete"
        },
        {
            "type": "Carris_Metropolitana",
            "Longitude": -8.967987,
            "Latitude": 38.749981,
            "INF_NOME": "Av. D. Manuel I Ft. L23",
            "INF_LOCALIDADE": "Alcochete",
            "INF_MUNICIPIO": "Alcochete"
        },
        {
            "type": "Carris_Metropolitana",
            "Longitude": -8.970791,
            "Latitude": 38.748365,
            "INF_NOME": "Av. Inf. D. João (Paia dos Moinhos)",
            "INF_LOCALIDADE": "Alcochete",
            "INF_MUNICIPIO": "Alcochete"
        },
        {
            "type": "Carris_Metropolitana",
            "Longitude": -8.971506,
            "Latitude": 38.746655,
            "INF_NOME": "Passeio Caravelas (Pq. estacionamento Fórum Cultural)",
            "INF_LOCALIDADE": "Alcochete",
            "INF_MUNICIPIO": "Alcochete"
        },
        {
            "type": "Carris_Metropolitana",
            "Longitude": -8.969371,
            "Latitude": 38.747993,
            "INF_NOME": "R. 25 de Abril 6",
            "INF_LOCALIDADE": "Alcochete",
            "INF_MUNICIPIO": "Alcochete"
        },
        {
            "type": "Carris_Metropolitana",
            "Longitude": -8.961294,
            "Latitude": 38.75266,
            "INF_NOME": "R. Da. Maria Teresa de Noronha 196",
            "INF_LOCALIDADE": "Alcochete",
            "INF_MUNICIPIO": "Alcochete"
        },
        {
            "type": "Carris_Metropolitana",
            "Longitude": -8.95813,
            "Latitude": 38.753259,
            "INF_NOME": "R. Carlos Manuel Rodrigues Francisco 409",
            "INF_LOCALIDADE": "Alcochete",
            "INF_MUNICIPIO": "Alcochete"
        },
        {
            "type": "Carris_Metropolitana",
            "Longitude": -8.958037,
            "Latitude": 38.753307,
            "INF_NOME": "R. Carlos Manuel Rodrigues Francisco Ft. 409",
            "INF_LOCALIDADE": "Alcochete",
            "INF_MUNICIPIO": "Alcochete"
        },
        {
            "type": "Carris_Metropolitana",
            "Longitude": -8.956741,
            "Latitude": 38.751255,
            "INF_NOME": "R. do Láparo (Supermercado)",
            "INF_LOCALIDADE": "Alcochete",
            "INF_MUNICIPIO": "Alcochete"
        },
        {
            "type": "Carris_Metropolitana",
            "Longitude": -8.956625,
            "Latitude": 38.751242,
            "INF_NOME": "R. do Láparo (Fte Supermercado)",
            "INF_LOCALIDADE": "Alcochete",
            "INF_MUNICIPIO": "Alcochete"
        },
        {
            "type": "Carris_Metropolitana",
            "Longitude": -8.953465,
            "Latitude": 38.749842,
            "INF_NOME": "R. do Láparo 360",
            "INF_LOCALIDADE": "Alcochete",
            "INF_MUNICIPIO": "Alcochete"
        },
        {
            "type": "Carris_Metropolitana",
            "Longitude": -8.953472,
            "Latitude": 38.749911,
            "INF_NOME": "R. do Láparo Ft. 360",
            "INF_LOCALIDADE": "Alcochete",
            "INF_MUNICIPIO": "Alcochete"
        },
        {
            "type": "Carris_Metropolitana",
            "Longitude": -8.951511,
            "Latitude": 38.748189,
            "INF_NOME": "R. do Láparo (X) R. da Bracieira",
            "INF_LOCALIDADE": "Alcochete",
            "INF_MUNICIPIO": "Alcochete"
        },
        {
            "type": "Carris_Metropolitana",
            "Longitude": -8.951503,
            "Latitude": 38.748278,
            "INF_NOME": "R. do Láparo (X) R. da Bracieira (sentido norte)",
            "INF_LOCALIDADE": "Alcochete",
            "INF_MUNICIPIO": "Alcochete"
        },
        {
            "type": "Carris_Metropolitana",
            "Longitude": -8.948745,
            "Latitude": 38.746343,
            "INF_NOME": "R. do Láparo 944",
            "INF_LOCALIDADE": "Alcochete",
            "INF_MUNICIPIO": "Alcochete"
        },
        {
            "type": "Carris_Metropolitana",
            "Longitude": -8.948375,
            "Latitude": 38.745936,
            "INF_NOME": "R. do Láparo",
            "INF_LOCALIDADE": "Alcochete",
            "INF_MUNICIPIO": "Alcochete"
        },
        {
            "type": "Carris_Metropolitana",
            "Longitude": -8.94605,
            "Latitude": 38.745522,
            "INF_NOME": "R. das Alfazemas (X) R. dos Jasmins",
            "INF_LOCALIDADE": "Alcochete",
            "INF_MUNICIPIO": "Alcochete"
        },
        {
            "type": "Carris_Metropolitana",
            "Longitude": -8.945954,
            "Latitude": 38.745434,
            "INF_NOME": "R. das Alfazemas (X) R. dos Alecrins",
            "INF_LOCALIDADE": "Alcochete",
            "INF_MUNICIPIO": "Alcochete"
        },
        {
            "type": "Carris_Metropolitana",
            "Longitude": -8.945941,
            "Latitude": 38.748707,
            "INF_NOME": "R. dos Damascos (Jd.)",
            "INF_LOCALIDADE": "Alcochete",
            "INF_MUNICIPIO": "Alcochete"
        },
        {
            "type": "Carris_Metropolitana",
            "Longitude": -8.945841,
            "Latitude": 38.748758,
            "INF_NOME": "R. dos Damascos (Ft. Jd.)",
            "INF_LOCALIDADE": "Alcochete",
            "INF_MUNICIPIO": "Alcochete"
        },
        {
            "type": "Carris_Metropolitana",
            "Longitude": -8.94458,
            "Latitude": 38.751652,
            "INF_NOME": "Acesso à R. dos Damascos (Supermercado)",
            "INF_LOCALIDADE": "Quebradas",
            "INF_MUNICIPIO": "Alcochete"
        },
        {
            "type": "Carris_Metropolitana",
            "Longitude": -8.964307,
            "Latitude": 38.748435,
            "INF_NOME": "Av. dos Barris (Centro Saúde)",
            "INF_LOCALIDADE": "Alcochete",
            "INF_MUNICIPIO": "Alcochete"
        },
        {
            "type": "Carris_Metropolitana",
            "Longitude": -8.96679,
            "Latitude": 38.745904,
            "INF_NOME": "Av. dos Barris Ft. 627",
            "INF_LOCALIDADE": "Alcochete",
            "INF_MUNICIPIO": "Alcochete"
        },
        {
            "type": "Carris_Metropolitana",
            "Longitude": -8.960715,
            "Latitude": 38.740462,
            "INF_NOME": "R. Vale Figueira 788",
            "INF_LOCALIDADE": "Alcochete",
            "INF_MUNICIPIO": "Alcochete"
        },
        {
            "type": "Carris_Metropolitana",
            "Longitude": -8.960615,
            "Latitude": 38.74049,
            "INF_NOME": "R. Vale Figueira Ft. 788",
            "INF_LOCALIDADE": "Alcochete",
            "INF_MUNICIPIO": "Alcochete"
        },
        {
            "type": "Carris_Metropolitana",
            "Longitude": -8.956538,
            "Latitude": 38.735205,
            "INF_NOME": "Estr. da Lagoa Cheia",
            "INF_LOCALIDADE": "Alcochete",
            "INF_MUNICIPIO": "Alcochete"
        },
        {
            "type": "Carris_Metropolitana",
            "Longitude": -8.956456,
            "Latitude": 38.735227,
            "INF_NOME": "Estr. da Lagoa Cheia",
            "INF_LOCALIDADE": "Alcochete",
            "INF_MUNICIPIO": "Alcochete"
        },
        {
            "type": "Carris_Metropolitana",
            "Longitude": -8.954484,
            "Latitude": 38.732272,
            "INF_NOME": "Estr. da Lagoa Cheia 618",
            "INF_LOCALIDADE": "Alcochete",
            "INF_MUNICIPIO": "Alcochete"
        },
        {
            "type": "Carris_Metropolitana",
            "Longitude": -8.954452,
            "Latitude": 38.732396,
            "INF_NOME": "R. Vale de Figueira Ft. 618",
            "INF_LOCALIDADE": "Alcochete",
            "INF_MUNICIPIO": "Alcochete"
        },
        {
            "type": "Carris_Metropolitana",
            "Longitude": -8.956327,
            "Latitude": 38.731476,
            "INF_NOME": "Estr. dos Malmequeres ",
            "INF_LOCALIDADE": "Alcochete",
            "INF_MUNICIPIO": "Alcochete"
        },
        {
            "type": "Carris_Metropolitana",
            "Longitude": -8.956669,
            "Latitude": 38.731377,
            "INF_NOME": "Estr. dos Malmequeres ",
            "INF_LOCALIDADE": "Alcochete",
            "INF_MUNICIPIO": "Alcochete"
        },
        {
            "type": "Carris_Metropolitana",
            "Longitude": -8.960893,
            "Latitude": 38.732838,
            "INF_NOME": "R. Futebol Clube de S. Francisco 1081",
            "INF_LOCALIDADE": "São Francisco",
            "INF_MUNICIPIO": "Alcochete"
        },
        {
            "type": "Carris_Metropolitana",
            "Longitude": -8.960852,
            "Latitude": 38.732718,
            "INF_NOME": "R. Futebol Clube de S. Francisco Ft. 1081",
            "INF_LOCALIDADE": "São Francisco",
            "INF_MUNICIPIO": "Alcochete"
        },
        {
            "type": "Carris_Metropolitana",
            "Longitude": -8.970956,
            "Latitude": 38.732284,
            "INF_NOME": "R. Futebol Clube de S. Francisco (X) R. António Aleixo",
            "INF_LOCALIDADE": "Alcochete",
            "INF_MUNICIPIO": "Alcochete"
        },
        {
            "type": "Carris_Metropolitana",
            "Longitude": -8.970549,
            "Latitude": 38.732255,
            "INF_NOME": "R. Futebol Clube de S. Francisco (X) R. António Aleixo",
            "INF_LOCALIDADE": "Alcochete",
            "INF_MUNICIPIO": "Alcochete"
        },
        {
            "type": "Carris_Metropolitana",
            "Longitude": -8.972425,
            "Latitude": 38.732385,
            "INF_NOME": "Av. S. Francisco de Assis 40",
            "INF_LOCALIDADE": "São Francisco",
            "INF_MUNICIPIO": "Alcochete"
        },
        {
            "type": "Carris_Metropolitana",
            "Longitude": -8.973869,
            "Latitude": 38.731198,
            "INF_NOME": "Urb. Villas do Dq. (Pq.)",
            "INF_LOCALIDADE": "São Francisco",
            "INF_MUNICIPIO": "Alcochete"
        },
        {
            "type": "Carris_Metropolitana",
            "Longitude": -8.97383,
            "Latitude": 38.731293,
            "INF_NOME": "Urb. Villas do Dq. (Fte Pq.)",
            "INF_LOCALIDADE": "São Francisco",
            "INF_MUNICIPIO": "Alcochete"
        },
        {
            "type": "Carris_Metropolitana",
            "Longitude": -8.973287,
            "Latitude": 38.728616,
            "INF_NOME": "Urb. Villas do Dq. (Espaço Comercial)",
            "INF_LOCALIDADE": "Alcochete",
            "INF_MUNICIPIO": "Alcochete"
        },
        {
            "type": "Carris_Metropolitana",
            "Longitude": -8.973181,
            "Latitude": 38.728807,
            "INF_NOME": "Urb. Villas do Dq. (Fte Espaço Comercial)",
            "INF_LOCALIDADE": "Alcochete",
            "INF_MUNICIPIO": "Alcochete"
        },
        {
            "type": "Carris_Metropolitana",
            "Longitude": -8.972361,
            "Latitude": 38.731723,
            "INF_NOME": "Av. S. Francisco de Assis Ft. 114",
            "INF_LOCALIDADE": "São Francisco",
            "INF_MUNICIPIO": "Alcochete"
        },
        {
            "type": "Carris_Metropolitana",
            "Longitude": -8.965834,
            "Latitude": 38.731588,
            "INF_NOME": "R. Futebol Clube de S. Francisco (Fte Cond Villa Azul)",
            "INF_LOCALIDADE": "São Francisco",
            "INF_MUNICIPIO": "Alcochete"
        },
        {
            "type": "Carris_Metropolitana",
            "Longitude": -8.966098,
            "Latitude": 38.731771,
            "INF_NOME": "R. Futebol Clube de S. Francisco (Cond Villa Azul)",
            "INF_LOCALIDADE": "São Francisco",
            "INF_MUNICIPIO": "Alcochete"
        },
        {
            "type": "Carris_Metropolitana",
            "Longitude": -8.966255,
            "Latitude": 38.745981,
            "INF_NOME": "Av. dos Barris 601",
            "INF_LOCALIDADE": "Alcochete",
            "INF_MUNICIPIO": "Alcochete"
        },
        {
            "type": "Carris_Metropolitana",
            "Longitude": -8.964495,
            "Latitude": 38.74789,
            "INF_NOME": "Av. dos Barris (Ft. Centro de Saúde)",
            "INF_LOCALIDADE": "Alcochete",
            "INF_MUNICIPIO": "Alcochete"
        },
        {
            "type": "Carris_Metropolitana",
            "Longitude": -8.914773,
            "Latitude": 38.688647,
            "INF_NOME": "Estr. do Brejo Comprido",
            "INF_LOCALIDADE": "Alcochete",
            "INF_MUNICIPIO": "Alcochete"
        },
        {
            "type": "Carris_Metropolitana",
            "Longitude": -8.916467,
            "Latitude": 38.69541,
            "INF_NOME": "Estr. de Vale Porrim (Qta. da Flor)",
            "INF_LOCALIDADE": "Alcochete",
            "INF_MUNICIPIO": "Alcochete"
        },
        {
            "type": "Carris_Metropolitana",
            "Longitude": -8.960039,
            "Latitude": 38.753276,
            "INF_NOME": "Av. da Revolução 86",
            "INF_LOCALIDADE": "Alcochete",
            "INF_MUNICIPIO": "Alcochete"
        },
        {
            "type": "Carris_Metropolitana",
            "Longitude": -8.959593,
            "Latitude": 38.753388,
            "INF_NOME": "Av. da Revolução 43",
            "INF_LOCALIDADE": "Alcochete",
            "INF_MUNICIPIO": "Alcochete"
        },
        {
            "type": "Carris_Metropolitana",
            "Longitude": -8.965488,
            "Latitude": 38.74924,
            "INF_NOME": "R. do Salineiro (X) R. Cap. Salgueiro Maia",
            "INF_LOCALIDADE": "Alcochete",
            "INF_MUNICIPIO": "Alcochete"
        },
        {
            "type": "Carris_Metropolitana",
            "Longitude": -8.965811,
            "Latitude": 38.749071,
            "INF_NOME": "R. do Salineiro Ft. 81",
            "INF_LOCALIDADE": "Alcochete",
            "INF_MUNICIPIO": "Alcochete"
        },
        {
            "type": "Carris_Metropolitana",
            "Longitude": -8.968585,
            "Latitude": 38.745965,
            "INF_NOME": "R. do Cerrinho da Praia (X) R. da Liberdade",
            "INF_LOCALIDADE": "Valbom",
            "INF_MUNICIPIO": "Alcochete"
        },
        {
            "type": "Carris_Metropolitana",
            "Longitude": -8.968874,
            "Latitude": 38.746213,
            "INF_NOME": "R. do Cerrinho da Praia 9 (X) R. da Liberdade",
            "INF_LOCALIDADE": "Valbom",
            "INF_MUNICIPIO": "Alcochete"
        },
        {
            "type": "Carris_Metropolitana",
            "Longitude": -8.970525,
            "Latitude": 38.739188,
            "INF_NOME": "Av. D. João II",
            "INF_LOCALIDADE": "Alcochete",
            "INF_MUNICIPIO": "Alcochete"
        },
        {
            "type": "Carris_Metropolitana",
            "Longitude": -8.97034,
            "Latitude": 38.739504,
            "INF_NOME": "Av. D. João II (X) R. do Cercal",
            "INF_LOCALIDADE": "Alcochete",
            "INF_MUNICIPIO": "Alcochete"
        },
        {
            "type": "Carris_Metropolitana",
            "Longitude": -8.975904,
            "Latitude": 38.731976,
            "INF_NOME": "R. da Soc. 95",
            "INF_LOCALIDADE": "Alcochete",
            "INF_MUNICIPIO": "Alcochete"
        },
        {
            "type": "Carris_Metropolitana",
            "Longitude": -8.975856,
            "Latitude": 38.732086,
            "INF_NOME": "R. da Soc. Ft. 95",
            "INF_LOCALIDADE": "Alcochete",
            "INF_MUNICIPIO": "Alcochete"
        },
        {
            "type": "Carris_Metropolitana",
            "Longitude": -8.981469,
            "Latitude": 38.735989,
            "INF_NOME": "EM501 (X) R. da Pacheca",
            "INF_LOCALIDADE": "Qta. da Pacheca",
            "INF_MUNICIPIO": "Alcochete"
        },
        {
            "type": "Carris_Metropolitana",
            "Longitude": -8.981473,
            "Latitude": 38.735783,
            "INF_NOME": "EM501 (Qta. da Pacheca) (X) R. da Pacheca",
            "INF_LOCALIDADE": "Qta. da Pacheca",
            "INF_MUNICIPIO": "Alcochete"
        },
        {
            "type": "Carris_Metropolitana",
            "Longitude": -8.991644,
            "Latitude": 38.728153,
            "INF_NOME": "EM501 (Viaduto Ponte Vasco da Gama)",
            "INF_LOCALIDADE": "Alcochete",
            "INF_MUNICIPIO": "Alcochete"
        },
        {
            "type": "Carris_Metropolitana",
            "Longitude": -8.991504,
            "Latitude": 38.728098,
            "INF_NOME": "EM 501 (Viaduto Ponte Vasco da Gama)",
            "INF_LOCALIDADE": "Alcochete",
            "INF_MUNICIPIO": "Alcochete"
        },
        {
            "type": "Carris_Metropolitana",
            "Longitude": -8.994983,
            "Latitude": 38.72337,
            "INF_NOME": "EM501",
            "INF_LOCALIDADE": "Samouco",
            "INF_MUNICIPIO": "Alcochete"
        },
        {
            "type": "Carris_Metropolitana",
            "Longitude": -8.994897,
            "Latitude": 38.723261,
            "INF_NOME": "EM501 (X) Estr. Conceição Matos",
            "INF_LOCALIDADE": "Samouco",
            "INF_MUNICIPIO": "Alcochete"
        },
        {
            "type": "Carris_Metropolitana",
            "Longitude": -8.998414,
            "Latitude": 38.722196,
            "INF_NOME": "EM501 233",
            "INF_LOCALIDADE": "Samouco",
            "INF_MUNICIPIO": "Alcochete"
        },
        {
            "type": "Carris_Metropolitana",
            "Longitude": -8.998532,
            "Latitude": 38.722084,
            "INF_NOME": "EM501 210",
            "INF_LOCALIDADE": "Samouco",
            "INF_MUNICIPIO": "Alcochete"
        },
        {
            "type": "Carris_Metropolitana",
            "Longitude": -9.000315,
            "Latitude": 38.721525,
            "INF_NOME": "EM501 Ft. 46",
            "INF_LOCALIDADE": "Samouco",
            "INF_MUNICIPIO": "Alcochete"
        },
        {
            "type": "Carris_Metropolitana",
            "Longitude": -9.000258,
            "Latitude": 38.721444,
            "INF_NOME": "EM501 46",
            "INF_LOCALIDADE": "Samouco",
            "INF_MUNICIPIO": "Alcochete"
        },
        {
            "type": "Carris_Metropolitana",
            "Longitude": -8.957867,
            "Latitude": 38.744593,
            "INF_NOME": "EM502 (Vl. Sol)",
            "INF_LOCALIDADE": "Alcochete",
            "INF_MUNICIPIO": "Alcochete"
        },
        {
            "type": "Carris_Metropolitana",
            "Longitude": -8.95768,
            "Latitude": 38.744518,
            "INF_NOME": "EM502 (Vl. Sol)",
            "INF_LOCALIDADE": "Alcochete",
            "INF_MUNICIPIO": "Alcochete"
        },
        {
            "type": "Carris_Metropolitana",
            "Longitude": -8.939894,
            "Latitude": 38.72658,
            "INF_NOME": "EM502 (Armazéns)",
            "INF_LOCALIDADE": "Alcochete",
            "INF_MUNICIPIO": "Alcochete"
        },
        {
            "type": "Carris_Metropolitana",
            "Longitude": -8.939746,
            "Latitude": 38.726712,
            "INF_NOME": "EM502 (Armazéns)",
            "INF_LOCALIDADE": "Alcochete",
            "INF_MUNICIPIO": "Alcochete"
        },
        {
            "type": "Carris_Metropolitana",
            "Longitude": -8.920074,
            "Latitude": 38.710779,
            "INF_NOME": "R. das Hortas Ft. 17",
            "INF_LOCALIDADE": "Fonte Senhora",
            "INF_MUNICIPIO": "Alcochete"
        },
        {
            "type": "Carris_Metropolitana",
            "Longitude": -8.920006,
            "Latitude": 38.710717,
            "INF_NOME": "R. das Hortas 17",
            "INF_LOCALIDADE": "Fonte Senhora",
            "INF_MUNICIPIO": "Alcochete"
        },
        {
            "type": "Carris_Metropolitana",
            "Longitude": -8.917419,
            "Latitude": 38.711488,
            "INF_NOME": "R. António Ribeiro Dias 5",
            "INF_LOCALIDADE": "Fonte Senhora",
            "INF_MUNICIPIO": "Alcochete"
        },
        {
            "type": "Carris_Metropolitana",
            "Longitude": -8.917189,
            "Latitude": 38.711492,
            "INF_NOME": "R. António Ribeiro Dias 120",
            "INF_LOCALIDADE": "Fonte Senhora",
            "INF_MUNICIPIO": "Alcochete"
        },
        {
            "type": "Carris_Metropolitana",
            "Longitude": -8.914769,
            "Latitude": 38.707531,
            "INF_NOME": "R. António Ribeiro Dias (X) EN4",
            "INF_LOCALIDADE": "Alcochete",
            "INF_MUNICIPIO": "Alcochete"
        },
        {
            "type": "Carris_Metropolitana",
            "Longitude": -8.914608,
            "Latitude": 38.707325,
            "INF_NOME": "R. António Ribeiro Dias",
            "INF_LOCALIDADE": "Alcochete",
            "INF_MUNICIPIO": "Alcochete"
        },
        {
            "type": "Carris_Metropolitana",
            "Longitude": -8.911405,
            "Latitude": 38.707245,
            "INF_NOME": "EN4 (Vv. Maricato)",
            "INF_LOCALIDADE": "Alcochete",
            "INF_MUNICIPIO": "Alcochete"
        },
        {
            "type": "Carris_Metropolitana",
            "Longitude": -8.910207,
            "Latitude": 38.707276,
            "INF_NOME": "EN4 (Fte Cs. Sto.s)",
            "INF_LOCALIDADE": "Alcochete",
            "INF_MUNICIPIO": "Alcochete"
        },
        {
            "type": "Carris_Metropolitana",
            "Longitude": -8.905727,
            "Latitude": 38.707923,
            "INF_NOME": "EN4 (Viaduto)",
            "INF_LOCALIDADE": "Alcochete",
            "INF_MUNICIPIO": "Alcochete"
        },
        {
            "type": "Carris_Metropolitana",
            "Longitude": -8.905808,
            "Latitude": 38.707814,
            "INF_NOME": "EN4 (Viaduto)",
            "INF_LOCALIDADE": "Alcochete",
            "INF_MUNICIPIO": "Alcochete"
        },
        {
            "type": "Carris_Metropolitana",
            "Longitude": -8.898717,
            "Latitude": 38.709056,
            "INF_NOME": "R. do Aceiro Ft. Lt. 7",
            "INF_LOCALIDADE": "Alcochete",
            "INF_MUNICIPIO": "Alcochete"
        },
        {
            "type": "Carris_Metropolitana",
            "Longitude": -8.898597,
            "Latitude": 38.709301,
            "INF_NOME": "R. do Aceiro 8",
            "INF_LOCALIDADE": "Alcochete",
            "INF_MUNICIPIO": "Alcochete"
        },
        {
            "type": "Carris_Metropolitana",
            "Longitude": -8.899968,
            "Latitude": 38.711581,
            "INF_NOME": "R. do Aceiro (Fábrica da Cortiça)",
            "INF_LOCALIDADE": "Alcochete",
            "INF_MUNICIPIO": "Alcochete"
        },
        {
            "type": "Carris_Metropolitana",
            "Longitude": -8.899887,
            "Latitude": 38.711717,
            "INF_NOME": "R. do Aceiro (Ft. Fábrica da Cortiça)",
            "INF_LOCALIDADE": "Alcochete",
            "INF_MUNICIPIO": "Alcochete"
        },
        {
            "type": "Carris_Metropolitana",
            "Longitude": -8.902807,
            "Latitude": 38.716252,
            "INF_NOME": "R. do Aceiro (Qta. Guia)",
            "INF_LOCALIDADE": "Alcochete",
            "INF_MUNICIPIO": "Alcochete"
        },
        {
            "type": "Carris_Metropolitana",
            "Longitude": -8.902556,
            "Latitude": 38.716112,
            "INF_NOME": "R. do Aceiro (Qta. Guia)",
            "INF_LOCALIDADE": "Alcochete",
            "INF_MUNICIPIO": "Alcochete"
        },
        {
            "type": "Carris_Metropolitana",
            "Longitude": -8.911371,
            "Latitude": 38.675331,
            "INF_NOME": "Estr. Charnequinha (X) EN5",
            "INF_LOCALIDADE": "Alcochete",
            "INF_MUNICIPIO": "Alcochete"
        },
        {
            "type": "Carris_Metropolitana",
            "Longitude": -8.911252,
            "Latitude": 38.672871,
            "INF_NOME": "Estr. Charnequinha (X) EN5",
            "INF_LOCALIDADE": "Alcochete",
            "INF_MUNICIPIO": "Alcochete"
        },
        {
            "type": "Carris_Metropolitana",
            "Longitude": -8.897853,
            "Latitude": 38.708862,
            "INF_NOME": "EN4 1",
            "INF_LOCALIDADE": "Alcochete",
            "INF_MUNICIPIO": "Alcochete"
        },
        {
            "type": "Carris_Metropolitana",
            "Longitude": -8.898154,
            "Latitude": 38.708691,
            "INF_NOME": "EN4 (X) R. do Aceiro",
            "INF_LOCALIDADE": "Alcochete",
            "INF_MUNICIPIO": "Alcochete"
        },
        {
            "type": "Carris_Metropolitana",
            "Longitude": -8.942944,
            "Latitude": 38.751109,
            "INF_NOME": "Av. Euro 2004 (Freeport entrada sul)",
            "INF_LOCALIDADE": "Alcochete",
            "INF_MUNICIPIO": "Alcochete"
        },
        {
            "type": "Carris_Metropolitana",
            "Longitude": -8.942829,
            "Latitude": 38.751395,
            "INF_NOME": "Av. Euro 2004 (Fte Freeport entrada sul)",
            "INF_LOCALIDADE": "Alcochete",
            "INF_MUNICIPIO": "Alcochete"
        },
        {
            "type": "Carris_Metropolitana",
            "Longitude": -8.94663,
            "Latitude": 38.75332,
            "INF_NOME": "Av. do Canto do Pinheiro 698",
            "INF_LOCALIDADE": "Alcochete",
            "INF_MUNICIPIO": "Alcochete"
        },
        {
            "type": "Carris_Metropolitana",
            "Longitude": -8.946569,
            "Latitude": 38.753445,
            "INF_NOME": "Av. do Canto do Pinheiro Ft. 698",
            "INF_LOCALIDADE": "Alcochete",
            "INF_MUNICIPIO": "Alcochete"
        },
        {
            "type": "Carris_Metropolitana",
            "Longitude": -8.950663,
            "Latitude": 38.755532,
            "INF_NOME": "Av. do Canto do Pinheiro (Ft. Vv. Sto.s)",
            "INF_LOCALIDADE": "Alcochete",
            "INF_MUNICIPIO": "Alcochete"
        },
        {
            "type": "Carris_Metropolitana",
            "Longitude": -8.950482,
            "Latitude": 38.755596,
            "INF_NOME": "Av. do Canto do Pinheiro (Vv. Sto.s)",
            "INF_LOCALIDADE": "Alcochete",
            "INF_MUNICIPIO": "Alcochete"
        },
        {
            "type": "Carris_Metropolitana",
            "Longitude": -8.955895,
            "Latitude": 38.753306,
            "INF_NOME": "Av. Maria Lamas (Ft. Grupo Desportivo Alcochetense)",
            "INF_LOCALIDADE": "Alcochete",
            "INF_MUNICIPIO": "Alcochete"
        },
        {
            "type": "Carris_Metropolitana",
            "Longitude": -8.956831,
            "Latitude": 38.753284,
            "INF_NOME": "Av. Maria Lamas Ft. Lt. 26",
            "INF_LOCALIDADE": "Alcochete",
            "INF_MUNICIPIO": "Alcochete"
        },
        {
            "type": "Carris_Metropolitana",
            "Longitude": -8.970576,
            "Latitude": 38.746564,
            "INF_NOME": "R. 25 de Abril (X) Passeio das Caravelas",
            "INF_LOCALIDADE": "Alcochete",
            "INF_MUNICIPIO": "Alcochete"
        },
        {
            "type": "Carris_Metropolitana",
            "Longitude": -8.974439,
            "Latitude": 38.742415,
            "INF_NOME": "EM501 (X) Estr. dos Canaviais",
            "INF_LOCALIDADE": "Alcochete",
            "INF_MUNICIPIO": "Alcochete"
        },
        {
            "type": "Carris_Metropolitana",
            "Longitude": -8.974646,
            "Latitude": 38.741912,
            "INF_NOME": "EM501 (X) Estr. dos Canaviais",
            "INF_LOCALIDADE": "Alcochete",
            "INF_MUNICIPIO": "Alcochete"
        },
        {
            "type": "Carris_Metropolitana",
            "Longitude": -8.970179,
            "Latitude": 38.746529,
            "INF_NOME": "R. 25 de Abril (X) R. do Cerradinho da Praia",
            "INF_LOCALIDADE": "Alcochete",
            "INF_MUNICIPIO": "Alcochete"
        },
        {
            "type": "Carris_Metropolitana",
            "Longitude": -8.857895,
            "Latitude": 38.715281,
            "INF_NOME": "EN4 (X) Estr. Malhada de Meias",
            "INF_LOCALIDADE": "Alcochete",
            "INF_MUNICIPIO": "Alcochete"
        },
        {
            "type": "Carris_Metropolitana",
            "Longitude": -8.857999,
            "Latitude": 38.715128,
            "INF_NOME": "EN4 (X) Estr. Malhada de Meias",
            "INF_LOCALIDADE": "Alcochete",
            "INF_MUNICIPIO": "Alcochete"
        },
        {
            "type": "Carris_Metropolitana",
            "Longitude": -8.872841,
            "Latitude": 38.712435,
            "INF_NOME": "EN4 (Monte Laranjo)",
            "INF_LOCALIDADE": "Alcochete",
            "INF_MUNICIPIO": "Alcochete"
        },
        {
            "type": "Carris_Metropolitana",
            "Longitude": -8.87208,
            "Latitude": 38.712387,
            "INF_NOME": "EN4 (Monte Laranjo)",
            "INF_LOCALIDADE": "Alcochete",
            "INF_MUNICIPIO": "Alcochete"
        },
        {
            "type": "Carris_Metropolitana",
            "Longitude": -8.88454,
            "Latitude": 38.710751,
            "INF_NOME": "EN4 (Rilvas)",
            "INF_LOCALIDADE": "Alcochete",
            "INF_MUNICIPIO": "Alcochete"
        },
        {
            "type": "Carris_Metropolitana",
            "Longitude": -8.884705,
            "Latitude": 38.710483,
            "INF_NOME": "EN4 (Rilvas)",
            "INF_LOCALIDADE": "Alcochete",
            "INF_MUNICIPIO": "Alcochete"
        },
        {
            "type": "Carris_Metropolitana",
            "Longitude": -8.835418,
            "Latitude": 38.710724,
            "INF_NOME": "EN4 (Fábrica)",
            "INF_LOCALIDADE": "Alcochete",
            "INF_MUNICIPIO": "Alcochete"
        },
        {
            "type": "Carris_Metropolitana",
            "Longitude": -8.902444,
            "Latitude": 38.673511,
            "INF_NOME": "EN5 (Agro Albuquerque)",
            "INF_LOCALIDADE": "Alcochete",
            "INF_MUNICIPIO": "Alcochete"
        },
        {
            "type": "Carris_Metropolitana",
            "Longitude": -8.901926,
            "Latitude": 38.673577,
            "INF_NOME": "EN5 (Agro Albuquerque)",
            "INF_LOCALIDADE": "Alcochete",
            "INF_MUNICIPIO": "Alcochete"
        },
        {
            "type": "Carris_Metropolitana",
            "Longitude": -8.929951,
            "Latitude": 38.745733,
            "INF_NOME": "Rot. do Entroncamento (X) EN119",
            "INF_LOCALIDADE": "Alcochete",
            "INF_MUNICIPIO": "Alcochete"
        },
        {
            "type": "Carris_Metropolitana",
            "Longitude": -8.960425,
            "Latitude": 38.756701,
            "INF_NOME": "R. Padre Cruz 3",
            "INF_LOCALIDADE": "Alcochete",
            "INF_MUNICIPIO": "Alcochete"
        },
        {
            "type": "Carris_Metropolitana",
            "Longitude": -8.930505,
            "Latitude": 38.745417,
            "INF_NOME": "Rot. do Entroncamento (Posto de Combustíveis)",
            "INF_LOCALIDADE": "Alcochete",
            "INF_MUNICIPIO": "Alcochete"
        },
        {
            "type": "Carris_Metropolitana",
            "Longitude": -8.905679,
            "Latitude": 38.722679,
            "INF_NOME": "Zn. Industrial do Passil P2",
            "INF_LOCALIDADE": "Alcochete",
            "INF_MUNICIPIO": "Alcochete"
        },
        {
            "type": "Carris_Metropolitana",
            "Longitude": -8.999771,
            "Latitude": 38.720098,
            "INF_NOME": "R. Dr. Manuel da Cruz Junior 128",
            "INF_LOCALIDADE": "Alcochete",
            "INF_MUNICIPIO": "Alcochete"
        },
        {
            "type": "Carris_Metropolitana",
            "Longitude": -8.999645,
            "Latitude": 38.720169,
            "INF_NOME": "R. Dr. Manuel da Cruz Junior Ft. 128",
            "INF_LOCALIDADE": "Alcochete",
            "INF_MUNICIPIO": "Alcochete"
        },
        {
            "type": "Carris_Metropolitana",
            "Longitude": -9.001466,
            "Latitude": 38.72282,
            "INF_NOME": "R. da Qta. da Praia (X) R. Bento Jesus Caraça",
            "INF_LOCALIDADE": "Alcochete",
            "INF_MUNICIPIO": "Alcochete"
        },
        {
            "type": "Carris_Metropolitana",
            "Longitude": -9.003895,
            "Latitude": 38.72369,
            "INF_NOME": "R. Conde de Vale de Reis Ft. 10",
            "INF_LOCALIDADE": "Alcochete",
            "INF_MUNICIPIO": "Alcochete"
        },
        {
            "type": "Carris_Metropolitana",
            "Longitude": -9.002773,
            "Latitude": 38.721047,
            "INF_NOME": "Pc. José Coelho 2",
            "INF_LOCALIDADE": "Alcochete",
            "INF_MUNICIPIO": "Alcochete"
        },
        {
            "type": "Carris_Metropolitana",
            "Longitude": -8.966163,
            "Latitude": 38.747159,
            "INF_NOME": "R. da Cooperação (Piscinas)",
            "INF_LOCALIDADE": "Bairro Coophabital",
            "INF_MUNICIPIO": "Alcochete"
        },
        {
            "type": "Carris_Metropolitana",
            "Longitude": -8.943709,
            "Latitude": 38.744935,
            "INF_NOME": "R. dos Jasmins 336",
            "INF_LOCALIDADE": "Quebradas",
            "INF_MUNICIPIO": "Alcochete"
        },
        {
            "type": "Carris_Metropolitana",
            "Longitude": -8.966437,
            "Latitude": 38.747329,
            "INF_NOME": "R. da Cooperação (Polidesportivo)",
            "INF_LOCALIDADE": "Bairro Coophabital",
            "INF_MUNICIPIO": "Alcochete"
        },
        {
            "type": "Carris_Metropolitana",
            "Longitude": -8.905053,
            "Latitude": 38.720204,
            "INF_NOME": "Zn. Industrial do Passil P3",
            "INF_LOCALIDADE": "Passil",
            "INF_MUNICIPIO": "Alcochete"
        },
        {
            "type": "Carris_Metropolitana",
            "Longitude": -8.969515,
            "Latitude": 38.73998,
            "INF_NOME": "R. do Cercal Ft. 70",
            "INF_LOCALIDADE": null,
            "INF_MUNICIPIO": "Alcochete"
        },
        {
            "type": "Carris_Metropolitana",
            "Longitude": -8.96912,
            "Latitude": 38.73994,
            "INF_NOME": "R. do Cercal 76",
            "INF_LOCALIDADE": null,
            "INF_MUNICIPIO": "Alcochete"
        },
        {
            "type": "Carris_Metropolitana",
            "Longitude": -8.910619,
            "Latitude": 38.724675,
            "INF_NOME": "R. do Vale da Fonte Coberta (Central Distribuição)",
            "INF_LOCALIDADE": null,
            "INF_MUNICIPIO": "Alcochete"
        },
        {
            "type": "Carris_Metropolitana",
            "Longitude": -8.96026,
            "Latitude": 38.74777,
            "INF_NOME": "Estr. da Atalaia Ft. 310",
            "INF_LOCALIDADE": null,
            "INF_MUNICIPIO": "Alcochete"
        },
        {
            "type": "Carris_Metropolitana",
            "Longitude": -8.906011,
            "Latitude": 38.723056,
            "INF_NOME": "Zn. Industrial do Passil P1",
            "INF_LOCALIDADE": "Passil",
            "INF_MUNICIPIO": "Alcochete"
        },
        {
            "type": "Carris_Metropolitana",
            "Longitude": -8.943649,
            "Latitude": 38.745024,
            "INF_NOME": "R. dos Jasmins Ft. 336",
            "INF_LOCALIDADE": "Quebradas",
            "INF_MUNICIPIO": "Alcochete"
        },
        {
            "type": "Carris_Metropolitana",
            "Longitude": -8.905019,
            "Latitude": 38.720176,
            "INF_NOME": "Zn. Industrial do Passil P4",
            "INF_LOCALIDADE": "Passil",
            "INF_MUNICIPIO": "Alcochete"
        },
        {
            "type": "Carris_Metropolitana",
            "Longitude": -8.910674,
            "Latitude": 38.72474,
            "INF_NOME": "R. do Vale da Fonte Coberta (Ft. Central Distribuição)",
            "INF_LOCALIDADE": null,
            "INF_MUNICIPIO": "Alcochete"
        },
        {
            "type": "Carris_Metropolitana",
            "Longitude": -8.94068,
            "Latitude": 38.74164,
            "INF_NOME": "R. das Madressilvas Ft. 178",
            "INF_LOCALIDADE": null,
            "INF_MUNICIPIO": "Alcochete"
        },
        {
            "type": "Carris_Metropolitana",
            "Longitude": -8.94082,
            "Latitude": 38.74172,
            "INF_NOME": "R. das Madressilvas 178",
            "INF_LOCALIDADE": null,
            "INF_MUNICIPIO": "Alcochete"
        },
        {
            "type": "Carris_Metropolitana",
            "Longitude": -8.94484,
            "Latitude": 38.74309,
            "INF_NOME": "R. dos Alecrins (Ft. Zn. Industrial)",
            "INF_LOCALIDADE": null,
            "INF_MUNICIPIO": "Alcochete"
        },
        {
            "type": "Carris_Metropolitana",
            "Longitude": -8.964222,
            "Latitude": 38.736861,
            "INF_NOME": "R. do Cercal (X) R. do Pinhal",
            "INF_LOCALIDADE": "São Francisco",
            "INF_MUNICIPIO": "Alcochete"
        },
        {
            "type": "Carris_Metropolitana",
            "Longitude": -8.963778,
            "Latitude": 38.736667,
            "INF_NOME": "R. do Cercal 681",
            "INF_LOCALIDADE": "São Francisco",
            "INF_MUNICIPIO": "Alcochete"
        },
        {
            "type": "Carris_Metropolitana",
            "Longitude": -8.9607,
            "Latitude": 38.74817,
            "INF_NOME": "Estr. da Atalaia 272",
            "INF_LOCALIDADE": null,
            "INF_MUNICIPIO": "Alcochete"
        },
        {
            "type": "Carris_Metropolitana",
            "Longitude": -8.835511,
            "Latitude": 38.710928,
            "INF_NOME": "EN 4 (Fábrica)",
            "INF_LOCALIDADE": null,
            "INF_MUNICIPIO": "Alcochete"
        },
        {
            "type": "Carris_Metropolitana",
            "Longitude": -8.94493,
            "Latitude": 38.74304,
            "INF_NOME": "R. dos Alecrins (Zn. Industrial)",
            "INF_LOCALIDADE": null,
            "INF_MUNICIPIO": "Alcochete"
        },
        {
            "type": "Carris_Metropolitana",
            "Longitude": -9.173993,
            "Latitude": 38.673804,
            "INF_NOME": "Ponte 25 de Abril (Portagens)",
            "INF_LOCALIDADE": "Pragal",
            "INF_MUNICIPIO": "Almada"
        },
        {
            "type": "Carris_Metropolitana",
            "Longitude": -9.23272,
            "Latitude": 38.643758,
            "INF_NOME": "Av. Dr. Aresta Branco (X) Pc. 9 de Julho",
            "INF_LOCALIDADE": "Costa da Caparica",
            "INF_MUNICIPIO": "Almada"
        },
        {
            "type": "Carris_Metropolitana",
            "Longitude": -9.173301,
            "Latitude": 38.673946,
            "INF_NOME": "a definir",
            "INF_LOCALIDADE": "Pragal",
            "INF_MUNICIPIO": "Almada"
        },
        {
            "type": "Carris_Metropolitana",
            "Longitude": -9.241125,
            "Latitude": 38.644755,
            "INF_NOME": "a definir",
            "INF_LOCALIDADE": "Costa da Caparica",
            "INF_MUNICIPIO": "Almada"
        },
        {
            "type": "Carris_Metropolitana",
            "Longitude": -9.240953,
            "Latitude": 38.644727,
            "INF_NOME": "a definir",
            "INF_LOCALIDADE": "Costa da Caparica",
            "INF_MUNICIPIO": "Almada"
        },
        {
            "type": "Carris_Metropolitana",
            "Longitude": -9.20325,
            "Latitude": 38.641501,
            "INF_NOME": "a definir",
            "INF_LOCALIDADE": "Almada",
            "INF_MUNICIPIO": "Almada"
        },
        {
            "type": "Carris_Metropolitana",
            "Longitude": -9.171115,
            "Latitude": 38.676531,
            "INF_NOME": "a definir",
            "INF_LOCALIDADE": "Almada",
            "INF_MUNICIPIO": "Almada"
        },
        {
            "type": "Carris_Metropolitana",
            "Longitude": -9.197306,
            "Latitude": 38.641333,
            "INF_NOME": "a definir",
            "INF_LOCALIDADE": "Almada",
            "INF_MUNICIPIO": "Almada"
        },
        {
            "type": "Carris_Metropolitana",
            "Longitude": -9.167604,
            "Latitude": 38.678535,
            "INF_NOME": "a definir",
            "INF_LOCALIDADE": "Almada",
            "INF_MUNICIPIO": "Almada"
        },
        {
            "type": "Carris_Metropolitana",
            "Longitude": -9.167803,
            "Latitude": 38.678575,
            "INF_NOME": "a definir",
            "INF_LOCALIDADE": "Almada",
            "INF_MUNICIPIO": "Almada"
        },
        {
            "type": "Carris_Metropolitana",
            "Longitude": -9.167238,
            "Latitude": 38.677382,
            "INF_NOME": "a definir",
            "INF_LOCALIDADE": "Almada",
            "INF_MUNICIPIO": "Almada"
        },
        {
            "type": "Carris_Metropolitana",
            "Longitude": -9.167545,
            "Latitude": 38.677377,
            "INF_NOME": "a definir",
            "INF_LOCALIDADE": "Almada",
            "INF_MUNICIPIO": "Almada"
        },
        {
            "type": "Carris_Metropolitana",
            "Longitude": -9.166082,
            "Latitude": 38.677908,
            "INF_NOME": "Av. do Cristo Rei 25",
            "INF_LOCALIDADE": "Almada",
            "INF_MUNICIPIO": "Almada"
        },
        {
            "type": "Carris_Metropolitana",
            "Longitude": -9.163412,
            "Latitude": 38.678776,
            "INF_NOME": "a definir",
            "INF_LOCALIDADE": "Almada",
            "INF_MUNICIPIO": "Almada"
        },
        {
            "type": "Carris_Metropolitana",
            "Longitude": -9.16115,
            "Latitude": 38.678908,
            "INF_NOME": "a definir",
            "INF_LOCALIDADE": "Almada",
            "INF_MUNICIPIO": "Almada"
        },
        {
            "type": "Carris_Metropolitana",
            "Longitude": -9.159992,
            "Latitude": 38.680526,
            "INF_NOME": "a definir",
            "INF_LOCALIDADE": "Almada",
            "INF_MUNICIPIO": "Almada"
        },
        {
            "type": "Carris_Metropolitana",
            "Longitude": -9.159455,
            "Latitude": 38.681587,
            "INF_NOME": "a definir",
            "INF_LOCALIDADE": "Almada",
            "INF_MUNICIPIO": "Almada"
        },
        {
            "type": "Carris_Metropolitana",
            "Longitude": -9.156925,
            "Latitude": 38.682389,
            "INF_NOME": "a definir",
            "INF_LOCALIDADE": "Almada",
            "INF_MUNICIPIO": "Almada"
        },
        {
            "type": "Carris_Metropolitana",
            "Longitude": -9.156614,
            "Latitude": 38.682336,
            "INF_NOME": "a definir",
            "INF_LOCALIDADE": "Almada",
            "INF_MUNICIPIO": "Almada"
        },
        {
            "type": "Carris_Metropolitana",
            "Longitude": -9.15446,
            "Latitude": 38.68222,
            "INF_NOME": "a definir",
            "INF_LOCALIDADE": "Almada",
            "INF_MUNICIPIO": "Almada"
        },
        {
            "type": "Carris_Metropolitana",
            "Longitude": -9.154336,
            "Latitude": 38.682311,
            "INF_NOME": "a definir",
            "INF_LOCALIDADE": "Almada",
            "INF_MUNICIPIO": "Almada"
        },
        {
            "type": "Carris_Metropolitana",
            "Longitude": -9.151957,
            "Latitude": 38.682479,
            "INF_NOME": "a definir",
            "INF_LOCALIDADE": "Almada",
            "INF_MUNICIPIO": "Almada"
        },
        {
            "type": "Carris_Metropolitana",
            "Longitude": -9.150319,
            "Latitude": 38.683845,
            "INF_NOME": "a definir",
            "INF_LOCALIDADE": "Cacilhas",
            "INF_MUNICIPIO": "Almada"
        },
        {
            "type": "Carris_Metropolitana",
            "Longitude": -9.147329,
            "Latitude": 38.684904,
            "INF_NOME": "a definir",
            "INF_LOCALIDADE": "Cacilhas",
            "INF_MUNICIPIO": "Almada"
        },
        {
            "type": "Carris_Metropolitana",
            "Longitude": -9.146908,
            "Latitude": 38.687818,
            "INF_NOME": "a definir",
            "INF_LOCALIDADE": "Cacilhas",
            "INF_MUNICIPIO": "Almada"
        },
        {
            "type": "Carris_Metropolitana",
            "Longitude": -9.147505,
            "Latitude": 38.685053,
            "INF_NOME": "Av. 25 de Abril 2",
            "INF_LOCALIDADE": "Cacilhas",
            "INF_MUNICIPIO": "Almada"
        },
        {
            "type": "Carris_Metropolitana",
            "Longitude": -9.150315,
            "Latitude": 38.684092,
            "INF_NOME": "a definir",
            "INF_LOCALIDADE": "Cacilhas",
            "INF_MUNICIPIO": "Almada"
        },
        {
            "type": "Carris_Metropolitana",
            "Longitude": -9.152925,
            "Latitude": 38.682131,
            "INF_NOME": "Av. D. Afonso Henriques (Supermercado)",
            "INF_LOCALIDADE": "Almada",
            "INF_MUNICIPIO": "Almada"
        },
        {
            "type": "Carris_Metropolitana",
            "Longitude": -9.154534,
            "Latitude": 38.681175,
            "INF_NOME": "a definir",
            "INF_LOCALIDADE": "Almada",
            "INF_MUNICIPIO": "Almada"
        },
        {
            "type": "Carris_Metropolitana",
            "Longitude": -9.15863,
            "Latitude": 38.679178,
            "INF_NOME": "a definir",
            "INF_LOCALIDADE": "Almada",
            "INF_MUNICIPIO": "Almada"
        },
        {
            "type": "Carris_Metropolitana",
            "Longitude": -9.160141,
            "Latitude": 38.679556,
            "INF_NOME": "a definir",
            "INF_LOCALIDADE": "Almada",
            "INF_MUNICIPIO": "Almada"
        },
        {
            "type": "Carris_Metropolitana",
            "Longitude": -9.161599,
            "Latitude": 38.680896,
            "INF_NOME": "a definir",
            "INF_LOCALIDADE": "Almada",
            "INF_MUNICIPIO": "Almada"
        },
        {
            "type": "Carris_Metropolitana",
            "Longitude": -9.164261,
            "Latitude": 38.679451,
            "INF_NOME": "a definir",
            "INF_LOCALIDADE": "Almada",
            "INF_MUNICIPIO": "Almada"
        },
        {
            "type": "Carris_Metropolitana",
            "Longitude": -9.164329,
            "Latitude": 38.679509,
            "INF_NOME": "a definir",
            "INF_LOCALIDADE": "Almada",
            "INF_MUNICIPIO": "Almada"
        },
        {
            "type": "Carris_Metropolitana",
            "Longitude": -9.166635,
            "Latitude": 38.678898,
            "INF_NOME": "R. Fernão Lourenço Ft. 79",
            "INF_LOCALIDADE": "Almada",
            "INF_MUNICIPIO": "Almada"
        },
        {
            "type": "Carris_Metropolitana",
            "Longitude": -9.156017,
            "Latitude": 38.677351,
            "INF_NOME": "a definir",
            "INF_LOCALIDADE": "Almada",
            "INF_MUNICIPIO": "Almada"
        },
        {
            "type": "Carris_Metropolitana",
            "Longitude": -9.156244,
            "Latitude": 38.677388,
            "INF_NOME": "a definir",
            "INF_LOCALIDADE": "Almada",
            "INF_MUNICIPIO": "Almada"
        },
        {
            "type": "Carris_Metropolitana",
            "Longitude": -9.156873,
            "Latitude": 38.679111,
            "INF_NOME": "a definir",
            "INF_LOCALIDADE": "Almada",
            "INF_MUNICIPIO": "Almada"
        },
        {
            "type": "Carris_Metropolitana",
            "Longitude": -9.162829,
            "Latitude": 38.677445,
            "INF_NOME": "a definir",
            "INF_LOCALIDADE": "Almada",
            "INF_MUNICIPIO": "Almada"
        },
        {
            "type": "Carris_Metropolitana",
            "Longitude": -9.163751,
            "Latitude": 38.675656,
            "INF_NOME": "a definir",
            "INF_LOCALIDADE": "Almada",
            "INF_MUNICIPIO": "Almada"
        },
        {
            "type": "Carris_Metropolitana",
            "Longitude": -9.163709,
            "Latitude": 38.675736,
            "INF_NOME": "a definir",
            "INF_LOCALIDADE": "Almada",
            "INF_MUNICIPIO": "Almada"
        },
        {
            "type": "Carris_Metropolitana",
            "Longitude": -9.161752,
            "Latitude": 38.674355,
            "INF_NOME": "a definir",
            "INF_LOCALIDADE": "Cova da Piedade",
            "INF_MUNICIPIO": "Almada"
        },
        {
            "type": "Carris_Metropolitana",
            "Longitude": -9.161883,
            "Latitude": 38.674184,
            "INF_NOME": "a definir",
            "INF_LOCALIDADE": "Cova da Piedade",
            "INF_MUNICIPIO": "Almada"
        },
        {
            "type": "Carris_Metropolitana",
            "Longitude": -9.161026,
            "Latitude": 38.672144,
            "INF_NOME": "a definir",
            "INF_LOCALIDADE": "Cova da Piedade",
            "INF_MUNICIPIO": "Almada"
        },
        {
            "type": "Carris_Metropolitana",
            "Longitude": -9.159298,
            "Latitude": 38.668954,
            "INF_NOME": "Av. 23 de Julho (Ft. Supermecado)",
            "INF_LOCALIDADE": "Cova da Piedade",
            "INF_MUNICIPIO": "Almada"
        },
        {
            "type": "Carris_Metropolitana",
            "Longitude": -9.164574,
            "Latitude": 38.668,
            "INF_NOME": "a definir",
            "INF_LOCALIDADE": "Almada",
            "INF_MUNICIPIO": "Almada"
        },
        {
            "type": "Carris_Metropolitana",
            "Longitude": -9.164638,
            "Latitude": 38.667856,
            "INF_NOME": "a definir",
            "INF_LOCALIDADE": "Almada",
            "INF_MUNICIPIO": "Almada"
        },
        {
            "type": "Carris_Metropolitana",
            "Longitude": -9.179479,
            "Latitude": 38.666696,
            "INF_NOME": "a definir",
            "INF_LOCALIDADE": "Pragal",
            "INF_MUNICIPIO": "Almada"
        },
        {
            "type": "Carris_Metropolitana",
            "Longitude": -9.190138,
            "Latitude": 38.663828,
            "INF_NOME": "a definir",
            "INF_LOCALIDADE": "Almada",
            "INF_MUNICIPIO": "Almada"
        },
        {
            "type": "Carris_Metropolitana",
            "Longitude": -9.159374,
            "Latitude": 38.667792,
            "INF_NOME": "Av. 23 de Julho (Ft. Posto Combustíveis)",
            "INF_LOCALIDADE": "Cova da Piedade",
            "INF_MUNICIPIO": "Almada"
        },
        {
            "type": "Carris_Metropolitana",
            "Longitude": -9.159132,
            "Latitude": 38.669886,
            "INF_NOME": "a definir",
            "INF_LOCALIDADE": "Almada",
            "INF_MUNICIPIO": "Almada"
        },
        {
            "type": "Carris_Metropolitana",
            "Longitude": -9.161493,
            "Latitude": 38.673787,
            "INF_NOME": "a definir",
            "INF_LOCALIDADE": "Almada",
            "INF_MUNICIPIO": "Almada"
        },
        {
            "type": "Carris_Metropolitana",
            "Longitude": -9.161951,
            "Latitude": 38.677605,
            "INF_NOME": "a definir",
            "INF_LOCALIDADE": "Almada",
            "INF_MUNICIPIO": "Almada"
        },
        {
            "type": "Carris_Metropolitana",
            "Longitude": -9.157767,
            "Latitude": 38.678964,
            "INF_NOME": "a definir",
            "INF_LOCALIDADE": "Almada",
            "INF_MUNICIPIO": "Almada"
        },
        {
            "type": "Carris_Metropolitana",
            "Longitude": -9.172975,
            "Latitude": 38.659255,
            "INF_NOME": "a definir",
            "INF_LOCALIDADE": "Feijó",
            "INF_MUNICIPIO": "Almada"
        },
        {
            "type": "Carris_Metropolitana",
            "Longitude": -9.173259,
            "Latitude": 38.6592,
            "INF_NOME": "Centro Comercial de Almada P1",
            "INF_LOCALIDADE": "Feijó",
            "INF_MUNICIPIO": "Almada"
        },
        {
            "type": "Carris_Metropolitana",
            "Longitude": -9.16257,
            "Latitude": 38.656751,
            "INF_NOME": "R. António Aleixo 2c",
            "INF_LOCALIDADE": "Feijó",
            "INF_MUNICIPIO": "Almada"
        },
        {
            "type": "Carris_Metropolitana",
            "Longitude": -9.16289,
            "Latitude": 38.656773,
            "INF_NOME": "R. António Aleixo Ft. 6",
            "INF_LOCALIDADE": "Feijó",
            "INF_MUNICIPIO": "Almada"
        },
        {
            "type": "Carris_Metropolitana",
            "Longitude": -9.161702,
            "Latitude": 38.6583,
            "INF_NOME": "a definir",
            "INF_LOCALIDADE": "Almada",
            "INF_MUNICIPIO": "Almada"
        },
        {
            "type": "Carris_Metropolitana",
            "Longitude": -9.161859,
            "Latitude": 38.6582,
            "INF_NOME": "a definir",
            "INF_LOCALIDADE": "Almada",
            "INF_MUNICIPIO": "Almada"
        },
        {
            "type": "Carris_Metropolitana",
            "Longitude": -9.161929,
            "Latitude": 38.659901,
            "INF_NOME": "a definir",
            "INF_LOCALIDADE": "Almada",
            "INF_MUNICIPIO": "Almada"
        },
        {
            "type": "Carris_Metropolitana",
            "Longitude": -9.162064,
            "Latitude": 38.66001,
            "INF_NOME": "a definir",
            "INF_LOCALIDADE": "Almada",
            "INF_MUNICIPIO": "Almada"
        },
        {
            "type": "Carris_Metropolitana",
            "Longitude": -9.163652,
            "Latitude": 38.660876,
            "INF_NOME": "a definir",
            "INF_LOCALIDADE": "Almada",
            "INF_MUNICIPIO": "Almada"
        },
        {
            "type": "Carris_Metropolitana",
            "Longitude": -9.163335,
            "Latitude": 38.660939,
            "INF_NOME": "a definir",
            "INF_LOCALIDADE": "Almada",
            "INF_MUNICIPIO": "Almada"
        },
        {
            "type": "Carris_Metropolitana",
            "Longitude": -9.163374,
            "Latitude": 38.6623,
            "INF_NOME": "a definir",
            "INF_LOCALIDADE": "Almada",
            "INF_MUNICIPIO": "Almada"
        },
        {
            "type": "Carris_Metropolitana",
            "Longitude": -9.163523,
            "Latitude": 38.662249,
            "INF_NOME": "a definir",
            "INF_LOCALIDADE": "Almada",
            "INF_MUNICIPIO": "Almada"
        },
        {
            "type": "Carris_Metropolitana",
            "Longitude": -9.162206,
            "Latitude": 38.66898,
            "INF_NOME": "a definir",
            "INF_LOCALIDADE": "Cova da Piedade",
            "INF_MUNICIPIO": "Almada"
        },
        {
            "type": "Carris_Metropolitana",
            "Longitude": -9.162346,
            "Latitude": 38.668894,
            "INF_NOME": "a definir",
            "INF_LOCALIDADE": "Cova da Piedade",
            "INF_MUNICIPIO": "Almada"
        },
        {
            "type": "Carris_Metropolitana",
            "Longitude": -9.160836,
            "Latitude": 38.67113,
            "INF_NOME": "a definir",
            "INF_LOCALIDADE": "Cova da Piedade",
            "INF_MUNICIPIO": "Almada"
        },
        {
            "type": "Carris_Metropolitana",
            "Longitude": -9.160004,
            "Latitude": 38.672067,
            "INF_NOME": "a definir",
            "INF_LOCALIDADE": "Cova da Piedade",
            "INF_MUNICIPIO": "Almada"
        },
        {
            "type": "Carris_Metropolitana",
            "Longitude": -9.160127,
            "Latitude": 38.672154,
            "INF_NOME": "a definir",
            "INF_LOCALIDADE": "Cova da Piedade",
            "INF_MUNICIPIO": "Almada"
        },
        {
            "type": "Carris_Metropolitana",
            "Longitude": -9.159219,
            "Latitude": 38.673584,
            "INF_NOME": "a definir",
            "INF_LOCALIDADE": "Cova da Piedade",
            "INF_MUNICIPIO": "Almada"
        },
        {
            "type": "Carris_Metropolitana",
            "Longitude": -9.159194,
            "Latitude": 38.674025,
            "INF_NOME": "a definir",
            "INF_LOCALIDADE": "Cova da Piedade",
            "INF_MUNICIPIO": "Almada"
        },
        {
            "type": "Carris_Metropolitana",
            "Longitude": -9.157937,
            "Latitude": 38.675928,
            "INF_NOME": "a definir",
            "INF_LOCALIDADE": "Cova da Piedade",
            "INF_MUNICIPIO": "Almada"
        },
        {
            "type": "Carris_Metropolitana",
            "Longitude": -9.153411,
            "Latitude": 38.6782,
            "INF_NOME": "a definir",
            "INF_LOCALIDADE": "Almada",
            "INF_MUNICIPIO": "Almada"
        },
        {
            "type": "Carris_Metropolitana",
            "Longitude": -9.153519,
            "Latitude": 38.678266,
            "INF_NOME": "a definir",
            "INF_LOCALIDADE": "Almada",
            "INF_MUNICIPIO": "Almada"
        },
        {
            "type": "Carris_Metropolitana",
            "Longitude": -9.152932,
            "Latitude": 38.679673,
            "INF_NOME": "a definir",
            "INF_LOCALIDADE": "Almada",
            "INF_MUNICIPIO": "Almada"
        },
        {
            "type": "Carris_Metropolitana",
            "Longitude": -9.152837,
            "Latitude": 38.679573,
            "INF_NOME": "a definir",
            "INF_LOCALIDADE": "Almada",
            "INF_MUNICIPIO": "Almada"
        },
        {
            "type": "Carris_Metropolitana",
            "Longitude": -9.147031,
            "Latitude": 38.687812,
            "INF_NOME": "a definir",
            "INF_LOCALIDADE": "Cacilhas",
            "INF_MUNICIPIO": "Almada"
        },
        {
            "type": "Carris_Metropolitana",
            "Longitude": -9.152449,
            "Latitude": 38.68178,
            "INF_NOME": "a definir",
            "INF_LOCALIDADE": "Almada",
            "INF_MUNICIPIO": "Almada"
        },
        {
            "type": "Carris_Metropolitana",
            "Longitude": -9.158442,
            "Latitude": 38.675477,
            "INF_NOME": "a definir",
            "INF_LOCALIDADE": "Almada",
            "INF_MUNICIPIO": "Almada"
        },
        {
            "type": "Carris_Metropolitana",
            "Longitude": -9.161346,
            "Latitude": 38.670891,
            "INF_NOME": "a definir",
            "INF_LOCALIDADE": "Cova da Piedade",
            "INF_MUNICIPIO": "Almada"
        },
        {
            "type": "Carris_Metropolitana",
            "Longitude": -9.172456,
            "Latitude": 38.656735,
            "INF_NOME": "a definir",
            "INF_LOCALIDADE": "Feijó",
            "INF_MUNICIPIO": "Almada"
        },
        {
            "type": "Carris_Metropolitana",
            "Longitude": -9.173877,
            "Latitude": 38.653145,
            "INF_NOME": "a definir",
            "INF_LOCALIDADE": "Vale Flores",
            "INF_MUNICIPIO": "Almada"
        },
        {
            "type": "Carris_Metropolitana",
            "Longitude": -9.174041,
            "Latitude": 38.653115,
            "INF_NOME": "a definir",
            "INF_LOCALIDADE": "Vale Flores",
            "INF_MUNICIPIO": "Almada"
        },
        {
            "type": "Carris_Metropolitana",
            "Longitude": -9.174387,
            "Latitude": 38.651045,
            "INF_NOME": "a definir",
            "INF_LOCALIDADE": "Vale Flores",
            "INF_MUNICIPIO": "Almada"
        },
        {
            "type": "Carris_Metropolitana",
            "Longitude": -9.172826,
            "Latitude": 38.649931,
            "INF_NOME": "a definir",
            "INF_LOCALIDADE": "Vale Flores",
            "INF_MUNICIPIO": "Almada"
        },
        {
            "type": "Carris_Metropolitana",
            "Longitude": -9.172844,
            "Latitude": 38.649837,
            "INF_NOME": "a definir",
            "INF_LOCALIDADE": "Vale Flores",
            "INF_MUNICIPIO": "Almada"
        },
        {
            "type": "Carris_Metropolitana",
            "Longitude": -9.171643,
            "Latitude": 38.648628,
            "INF_NOME": "a definir",
            "INF_LOCALIDADE": "Vale Flores",
            "INF_MUNICIPIO": "Almada"
        },
        {
            "type": "Carris_Metropolitana",
            "Longitude": -9.171541,
            "Latitude": 38.64879,
            "INF_NOME": "a definir",
            "INF_LOCALIDADE": "Vale Flores",
            "INF_MUNICIPIO": "Almada"
        },
        {
            "type": "Carris_Metropolitana",
            "Longitude": -9.171545,
            "Latitude": 38.646777,
            "INF_NOME": "a definir",
            "INF_LOCALIDADE": "Vale Flores",
            "INF_MUNICIPIO": "Almada"
        },
        {
            "type": "Carris_Metropolitana",
            "Longitude": -9.171701,
            "Latitude": 38.646736,
            "INF_NOME": "a definir",
            "INF_LOCALIDADE": "Vale Flores",
            "INF_MUNICIPIO": "Almada"
        },
        {
            "type": "Carris_Metropolitana",
            "Longitude": -9.169312,
            "Latitude": 38.646397,
            "INF_NOME": "a definir",
            "INF_LOCALIDADE": "Vale Flores",
            "INF_MUNICIPIO": "Almada"
        },
        {
            "type": "Carris_Metropolitana",
            "Longitude": -9.169408,
            "Latitude": 38.646315,
            "INF_NOME": "a definir",
            "INF_LOCALIDADE": "Vale Flores",
            "INF_MUNICIPIO": "Almada"
        },
        {
            "type": "Carris_Metropolitana",
            "Longitude": -9.170929,
            "Latitude": 38.644627,
            "INF_NOME": "a definir",
            "INF_LOCALIDADE": "Vale Figueira",
            "INF_MUNICIPIO": "Almada"
        },
        {
            "type": "Carris_Metropolitana",
            "Longitude": -9.171691,
            "Latitude": 38.644692,
            "INF_NOME": "a definir",
            "INF_LOCALIDADE": "Vale Figueira",
            "INF_MUNICIPIO": "Almada"
        },
        {
            "type": "Carris_Metropolitana",
            "Longitude": -9.175492,
            "Latitude": 38.642984,
            "INF_NOME": "a definir",
            "INF_LOCALIDADE": "Almada",
            "INF_MUNICIPIO": "Almada"
        },
        {
            "type": "Carris_Metropolitana",
            "Longitude": -9.175537,
            "Latitude": 38.643075,
            "INF_NOME": "a definir",
            "INF_LOCALIDADE": "Almada",
            "INF_MUNICIPIO": "Almada"
        },
        {
            "type": "Carris_Metropolitana",
            "Longitude": -9.178719,
            "Latitude": 38.64361,
            "INF_NOME": "a definir",
            "INF_LOCALIDADE": "Casal Sto. António",
            "INF_MUNICIPIO": "Almada"
        },
        {
            "type": "Carris_Metropolitana",
            "Longitude": -9.178364,
            "Latitude": 38.643678,
            "INF_NOME": "a definir",
            "INF_LOCALIDADE": "Casal Sto. António",
            "INF_MUNICIPIO": "Almada"
        },
        {
            "type": "Carris_Metropolitana",
            "Longitude": -9.18197,
            "Latitude": 38.643965,
            "INF_NOME": "a definir",
            "INF_LOCALIDADE": "Almada",
            "INF_MUNICIPIO": "Almada"
        },
        {
            "type": "Carris_Metropolitana",
            "Longitude": -9.181973,
            "Latitude": 38.643881,
            "INF_NOME": "a definir",
            "INF_LOCALIDADE": "Almada",
            "INF_MUNICIPIO": "Almada"
        },
        {
            "type": "Carris_Metropolitana",
            "Longitude": -9.182378,
            "Latitude": 38.643485,
            "INF_NOME": "a definir",
            "INF_LOCALIDADE": "Almada",
            "INF_MUNICIPIO": "Almada"
        },
        {
            "type": "Carris_Metropolitana",
            "Longitude": -9.182494,
            "Latitude": 38.6436,
            "INF_NOME": "a definir",
            "INF_LOCALIDADE": "Almada",
            "INF_MUNICIPIO": "Almada"
        },
        {
            "type": "Carris_Metropolitana",
            "Longitude": -9.181233,
            "Latitude": 38.63952,
            "INF_NOME": "a definir",
            "INF_LOCALIDADE": "Vale Figueira",
            "INF_MUNICIPIO": "Almada"
        },
        {
            "type": "Carris_Metropolitana",
            "Longitude": -9.181416,
            "Latitude": 38.639449,
            "INF_NOME": "a definir",
            "INF_LOCALIDADE": "Vale Figueira",
            "INF_MUNICIPIO": "Almada"
        },
        {
            "type": "Carris_Metropolitana",
            "Longitude": -9.17648,
            "Latitude": 38.636052,
            "INF_NOME": "a definir",
            "INF_LOCALIDADE": "Vale Figueira",
            "INF_MUNICIPIO": "Almada"
        },
        {
            "type": "Carris_Metropolitana",
            "Longitude": -9.178814,
            "Latitude": 38.634253,
            "INF_NOME": "a definir",
            "INF_LOCALIDADE": "Vale Figueira",
            "INF_MUNICIPIO": "Almada"
        },
        {
            "type": "Carris_Metropolitana",
            "Longitude": -9.178855,
            "Latitude": 38.634163,
            "INF_NOME": "a definir",
            "INF_LOCALIDADE": "Vale Figueira",
            "INF_MUNICIPIO": "Almada"
        },
        {
            "type": "Carris_Metropolitana",
            "Longitude": -9.181773,
            "Latitude": 38.632058,
            "INF_NOME": "a definir",
            "INF_LOCALIDADE": "Vale Fetal",
            "INF_MUNICIPIO": "Almada"
        },
        {
            "type": "Carris_Metropolitana",
            "Longitude": -9.184167,
            "Latitude": 38.629156,
            "INF_NOME": "a definir",
            "INF_LOCALIDADE": "Almada",
            "INF_MUNICIPIO": "Almada"
        },
        {
            "type": "Carris_Metropolitana",
            "Longitude": -9.184182,
            "Latitude": 38.6293,
            "INF_NOME": "a definir",
            "INF_LOCALIDADE": "Almada",
            "INF_MUNICIPIO": "Almada"
        },
        {
            "type": "Carris_Metropolitana",
            "Longitude": -9.187888,
            "Latitude": 38.628985,
            "INF_NOME": "a definir",
            "INF_LOCALIDADE": "Vale Fetal",
            "INF_MUNICIPIO": "Almada"
        },
        {
            "type": "Carris_Metropolitana",
            "Longitude": -9.187624,
            "Latitude": 38.628797,
            "INF_NOME": "a definir",
            "INF_LOCALIDADE": "Vale Fetal",
            "INF_MUNICIPIO": "Almada"
        },
        {
            "type": "Carris_Metropolitana",
            "Longitude": -9.19106,
            "Latitude": 38.630925,
            "INF_NOME": "a definir",
            "INF_LOCALIDADE": "Vale Fetal",
            "INF_MUNICIPIO": "Almada"
        },
        {
            "type": "Carris_Metropolitana",
            "Longitude": -9.190979,
            "Latitude": 38.630979,
            "INF_NOME": "a definir",
            "INF_LOCALIDADE": "Vale Fetal",
            "INF_MUNICIPIO": "Almada"
        },
        {
            "type": "Carris_Metropolitana",
            "Longitude": -9.193013,
            "Latitude": 38.631329,
            "INF_NOME": "a definir",
            "INF_LOCALIDADE": "Charneca da Caparica",
            "INF_MUNICIPIO": "Almada"
        },
        {
            "type": "Carris_Metropolitana",
            "Longitude": -9.196853,
            "Latitude": 38.63031,
            "INF_NOME": "a definir",
            "INF_LOCALIDADE": "Charneca da Caparica",
            "INF_MUNICIPIO": "Almada"
        },
        {
            "type": "Carris_Metropolitana",
            "Longitude": -9.199358,
            "Latitude": 38.629231,
            "INF_NOME": "a definir",
            "INF_LOCALIDADE": "Palhais",
            "INF_MUNICIPIO": "Almada"
        },
        {
            "type": "Carris_Metropolitana",
            "Longitude": -9.198835,
            "Latitude": 38.629444,
            "INF_NOME": "a definir",
            "INF_LOCALIDADE": "Almada",
            "INF_MUNICIPIO": "Almada"
        },
        {
            "type": "Carris_Metropolitana",
            "Longitude": -9.202367,
            "Latitude": 38.626259,
            "INF_NOME": "a definir",
            "INF_LOCALIDADE": "Almada",
            "INF_MUNICIPIO": "Almada"
        },
        {
            "type": "Carris_Metropolitana",
            "Longitude": -9.20217,
            "Latitude": 38.626345,
            "INF_NOME": "a definir",
            "INF_LOCALIDADE": "Almada",
            "INF_MUNICIPIO": "Almada"
        },
        {
            "type": "Carris_Metropolitana",
            "Longitude": -9.195038,
            "Latitude": 38.612126,
            "INF_NOME": "a definir",
            "INF_LOCALIDADE": "Charneca da Caparica",
            "INF_MUNICIPIO": "Almada"
        },
        {
            "type": "Carris_Metropolitana",
            "Longitude": -9.194911,
            "Latitude": 38.612213,
            "INF_NOME": "a definir",
            "INF_LOCALIDADE": "Charneca da Caparica",
            "INF_MUNICIPIO": "Almada"
        },
        {
            "type": "Carris_Metropolitana",
            "Longitude": -9.195096,
            "Latitude": 38.609102,
            "INF_NOME": "a definir",
            "INF_LOCALIDADE": "Almada",
            "INF_MUNICIPIO": "Almada"
        },
        {
            "type": "Carris_Metropolitana",
            "Longitude": -9.195186,
            "Latitude": 38.609071,
            "INF_NOME": "a definir",
            "INF_LOCALIDADE": "Almada",
            "INF_MUNICIPIO": "Almada"
        },
        {
            "type": "Carris_Metropolitana",
            "Longitude": -9.194079,
            "Latitude": 38.60563,
            "INF_NOME": "a definir",
            "INF_LOCALIDADE": "Almada",
            "INF_MUNICIPIO": "Almada"
        },
        {
            "type": "Carris_Metropolitana",
            "Longitude": -9.194219,
            "Latitude": 38.605624,
            "INF_NOME": "a definir",
            "INF_LOCALIDADE": "Almada",
            "INF_MUNICIPIO": "Almada"
        },
        {
            "type": "Carris_Metropolitana",
            "Longitude": -9.19097,
            "Latitude": 38.604718,
            "INF_NOME": "a definir",
            "INF_LOCALIDADE": "Almada",
            "INF_MUNICIPIO": "Almada"
        },
        {
            "type": "Carris_Metropolitana",
            "Longitude": -9.191037,
            "Latitude": 38.604605,
            "INF_NOME": "a definir",
            "INF_LOCALIDADE": "Almada",
            "INF_MUNICIPIO": "Almada"
        },
        {
            "type": "Carris_Metropolitana",
            "Longitude": -9.18691,
            "Latitude": 38.604667,
            "INF_NOME": "a definir",
            "INF_LOCALIDADE": "Almada",
            "INF_MUNICIPIO": "Almada"
        },
        {
            "type": "Carris_Metropolitana",
            "Longitude": -9.18698,
            "Latitude": 38.604548,
            "INF_NOME": "a definir",
            "INF_LOCALIDADE": "Almada",
            "INF_MUNICIPIO": "Almada"
        },
        {
            "type": "Carris_Metropolitana",
            "Longitude": -9.186375,
            "Latitude": 38.603472,
            "INF_NOME": "a definir",
            "INF_LOCALIDADE": "Charneca da Caparica",
            "INF_MUNICIPIO": "Almada"
        },
        {
            "type": "Carris_Metropolitana",
            "Longitude": -9.186201,
            "Latitude": 38.603674,
            "INF_NOME": "a definir",
            "INF_LOCALIDADE": "Charneca da Caparica",
            "INF_MUNICIPIO": "Almada"
        },
        {
            "type": "Carris_Metropolitana",
            "Longitude": -9.18686,
            "Latitude": 38.601176,
            "INF_NOME": "a definir",
            "INF_LOCALIDADE": "Charneca da Caparica",
            "INF_MUNICIPIO": "Almada"
        },
        {
            "type": "Carris_Metropolitana",
            "Longitude": -9.187007,
            "Latitude": 38.601203,
            "INF_NOME": "a definir",
            "INF_LOCALIDADE": "Charneca da Caparica",
            "INF_MUNICIPIO": "Almada"
        },
        {
            "type": "Carris_Metropolitana",
            "Longitude": -9.18448,
            "Latitude": 38.599665,
            "INF_NOME": "a definir",
            "INF_LOCALIDADE": "Marisol",
            "INF_MUNICIPIO": "Almada"
        },
        {
            "type": "Carris_Metropolitana",
            "Longitude": -9.184585,
            "Latitude": 38.599652,
            "INF_NOME": "a definir",
            "INF_LOCALIDADE": "Marisol",
            "INF_MUNICIPIO": "Almada"
        },
        {
            "type": "Carris_Metropolitana",
            "Longitude": -9.199458,
            "Latitude": 38.623269,
            "INF_NOME": "Al. Amália Rodrigues (X) R. 25 de Abril",
            "INF_LOCALIDADE": "Almada",
            "INF_MUNICIPIO": "Almada"
        },
        {
            "type": "Carris_Metropolitana",
            "Longitude": -9.19962,
            "Latitude": 38.623512,
            "INF_NOME": "a definir",
            "INF_LOCALIDADE": "Almada",
            "INF_MUNICIPIO": "Almada"
        },
        {
            "type": "Carris_Metropolitana",
            "Longitude": -9.198599,
            "Latitude": 38.629728,
            "INF_NOME": "a definir",
            "INF_LOCALIDADE": "Charneca da Caparica",
            "INF_MUNICIPIO": "Almada"
        },
        {
            "type": "Carris_Metropolitana",
            "Longitude": -9.199114,
            "Latitude": 38.62996,
            "INF_NOME": "a definir",
            "INF_LOCALIDADE": "Charneca da Caparica",
            "INF_MUNICIPIO": "Almada"
        },
        {
            "type": "Carris_Metropolitana",
            "Longitude": -9.195508,
            "Latitude": 38.630594,
            "INF_NOME": "a definir",
            "INF_LOCALIDADE": "Charneca da Caparica",
            "INF_MUNICIPIO": "Almada"
        },
        {
            "type": "Carris_Metropolitana",
            "Longitude": -9.193478,
            "Latitude": 38.631156,
            "INF_NOME": "a definir",
            "INF_LOCALIDADE": "Charneca da Caparica",
            "INF_MUNICIPIO": "Almada"
        },
        {
            "type": "Carris_Metropolitana",
            "Longitude": -9.181831,
            "Latitude": 38.631329,
            "INF_NOME": "a definir",
            "INF_LOCALIDADE": "Charneca da Caparica",
            "INF_MUNICIPIO": "Almada"
        },
        {
            "type": "Carris_Metropolitana",
            "Longitude": -9.176718,
            "Latitude": 38.635396,
            "INF_NOME": "a definir",
            "INF_LOCALIDADE": "Vale Figueira",
            "INF_MUNICIPIO": "Almada"
        },
        {
            "type": "Carris_Metropolitana",
            "Longitude": -9.173081,
            "Latitude": 38.643724,
            "INF_NOME": "a definir",
            "INF_LOCALIDADE": "Vale Figueira",
            "INF_MUNICIPIO": "Almada"
        },
        {
            "type": "Carris_Metropolitana",
            "Longitude": -9.172616,
            "Latitude": 38.655749,
            "INF_NOME": "a definir",
            "INF_LOCALIDADE": "Feijó",
            "INF_MUNICIPIO": "Almada"
        },
        {
            "type": "Carris_Metropolitana",
            "Longitude": -9.152592,
            "Latitude": 38.682513,
            "INF_NOME": "Pc. Gil Vicente (Ft. Escola)",
            "INF_LOCALIDADE": "Almada",
            "INF_MUNICIPIO": "Almada"
        },
        {
            "type": "Carris_Metropolitana",
            "Longitude": -9.155407,
            "Latitude": 38.681907,
            "INF_NOME": "a definir",
            "INF_LOCALIDADE": "Almada",
            "INF_MUNICIPIO": "Almada"
        },
        {
            "type": "Carris_Metropolitana",
            "Longitude": -9.157703,
            "Latitude": 38.680583,
            "INF_NOME": "a definir",
            "INF_LOCALIDADE": "Almada",
            "INF_MUNICIPIO": "Almada"
        },
        {
            "type": "Carris_Metropolitana",
            "Longitude": -9.160617,
            "Latitude": 38.680953,
            "INF_NOME": "R. Leonel Duarte Ferreira (X) Tv. da Academia",
            "INF_LOCALIDADE": "Almada",
            "INF_MUNICIPIO": "Almada"
        },
        {
            "type": "Carris_Metropolitana",
            "Longitude": -9.162147,
            "Latitude": 38.679528,
            "INF_NOME": "a definir",
            "INF_LOCALIDADE": "Almada",
            "INF_MUNICIPIO": "Almada"
        },
        {
            "type": "Carris_Metropolitana",
            "Longitude": -9.160487,
            "Latitude": 38.681969,
            "INF_NOME": "R. Leonel Duarte Ferreira 15",
            "INF_LOCALIDADE": "Almada",
            "INF_MUNICIPIO": "Almada"
        },
        {
            "type": "Carris_Metropolitana",
            "Longitude": -9.154548,
            "Latitude": 38.684088,
            "INF_NOME": "a definir",
            "INF_LOCALIDADE": "Almada",
            "INF_MUNICIPIO": "Almada"
        },
        {
            "type": "Carris_Metropolitana",
            "Longitude": -9.153321,
            "Latitude": 38.68355,
            "INF_NOME": "a definir",
            "INF_LOCALIDADE": "Almada",
            "INF_MUNICIPIO": "Almada"
        },
        {
            "type": "Carris_Metropolitana",
            "Longitude": -9.15253,
            "Latitude": 38.684903,
            "INF_NOME": "a definir",
            "INF_LOCALIDADE": "Almada",
            "INF_MUNICIPIO": "Almada"
        },
        {
            "type": "Carris_Metropolitana",
            "Longitude": -9.150579,
            "Latitude": 38.685292,
            "INF_NOME": "a definir",
            "INF_LOCALIDADE": "Almada",
            "INF_MUNICIPIO": "Almada"
        },
        {
            "type": "Carris_Metropolitana",
            "Longitude": -9.150392,
            "Latitude": 38.685031,
            "INF_NOME": "R. Cmdt. António Feio 10",
            "INF_LOCALIDADE": "Almada",
            "INF_MUNICIPIO": "Almada"
        },
        {
            "type": "Carris_Metropolitana",
            "Longitude": -9.167319,
            "Latitude": 38.585403,
            "INF_NOME": "a definir",
            "INF_LOCALIDADE": "Aroeira",
            "INF_MUNICIPIO": "Almada"
        },
        {
            "type": "Carris_Metropolitana",
            "Longitude": -9.1675,
            "Latitude": 38.585528,
            "INF_NOME": "a definir",
            "INF_LOCALIDADE": "Aroeira",
            "INF_MUNICIPIO": "Almada"
        },
        {
            "type": "Carris_Metropolitana",
            "Longitude": -9.17416,
            "Latitude": 38.586488,
            "INF_NOME": "Av. D. Afonso Henriques 66",
            "INF_LOCALIDADE": "Almada",
            "INF_MUNICIPIO": "Almada"
        },
        {
            "type": "Carris_Metropolitana",
            "Longitude": -9.173963,
            "Latitude": 38.586424,
            "INF_NOME": "Av. D. Afonso Henriques 49",
            "INF_LOCALIDADE": "Almada",
            "INF_MUNICIPIO": "Almada"
        },
        {
            "type": "Carris_Metropolitana",
            "Longitude": -9.176828,
            "Latitude": 38.5891,
            "INF_NOME": "a definir",
            "INF_LOCALIDADE": "Almada",
            "INF_MUNICIPIO": "Almada"
        },
        {
            "type": "Carris_Metropolitana",
            "Longitude": -9.176898,
            "Latitude": 38.589058,
            "INF_NOME": "a definir",
            "INF_LOCALIDADE": "Almada",
            "INF_MUNICIPIO": "Almada"
        },
        {
            "type": "Carris_Metropolitana",
            "Longitude": -9.182227,
            "Latitude": 38.592624,
            "INF_NOME": "a definir",
            "INF_LOCALIDADE": "Marisol",
            "INF_MUNICIPIO": "Almada"
        },
        {
            "type": "Carris_Metropolitana",
            "Longitude": -9.181686,
            "Latitude": 38.592785,
            "INF_NOME": "a definir",
            "INF_LOCALIDADE": "Marisol",
            "INF_MUNICIPIO": "Almada"
        },
        {
            "type": "Carris_Metropolitana",
            "Longitude": -9.183861,
            "Latitude": 38.594761,
            "INF_NOME": "a definir",
            "INF_LOCALIDADE": "Marisol",
            "INF_MUNICIPIO": "Almada"
        },
        {
            "type": "Carris_Metropolitana",
            "Longitude": -9.183744,
            "Latitude": 38.594814,
            "INF_NOME": "a definir",
            "INF_LOCALIDADE": "Marisol",
            "INF_MUNICIPIO": "Almada"
        },
        {
            "type": "Carris_Metropolitana",
            "Longitude": -9.181888,
            "Latitude": 38.600494,
            "INF_NOME": "a definir",
            "INF_LOCALIDADE": "Almada",
            "INF_MUNICIPIO": "Almada"
        },
        {
            "type": "Carris_Metropolitana",
            "Longitude": -9.17889,
            "Latitude": 38.600523,
            "INF_NOME": "a definir",
            "INF_LOCALIDADE": "Almada",
            "INF_MUNICIPIO": "Almada"
        },
        {
            "type": "Carris_Metropolitana",
            "Longitude": -9.178404,
            "Latitude": 38.599705,
            "INF_NOME": "a definir",
            "INF_LOCALIDADE": "Marisol",
            "INF_MUNICIPIO": "Almada"
        },
        {
            "type": "Carris_Metropolitana",
            "Longitude": -9.178581,
            "Latitude": 38.599603,
            "INF_NOME": "a definir",
            "INF_LOCALIDADE": "Marisol",
            "INF_MUNICIPIO": "Almada"
        },
        {
            "type": "Carris_Metropolitana",
            "Longitude": -9.178816,
            "Latitude": 38.597288,
            "INF_NOME": "a definir",
            "INF_LOCALIDADE": "Almada",
            "INF_MUNICIPIO": "Almada"
        },
        {
            "type": "Carris_Metropolitana",
            "Longitude": -9.178914,
            "Latitude": 38.597391,
            "INF_NOME": "a definir",
            "INF_LOCALIDADE": "Almada",
            "INF_MUNICIPIO": "Almada"
        },
        {
            "type": "Carris_Metropolitana",
            "Longitude": -9.17628,
            "Latitude": 38.594792,
            "INF_NOME": "a definir",
            "INF_LOCALIDADE": "Almada",
            "INF_MUNICIPIO": "Almada"
        },
        {
            "type": "Carris_Metropolitana",
            "Longitude": -9.17628,
            "Latitude": 38.594712,
            "INF_NOME": "a definir",
            "INF_LOCALIDADE": "Almada",
            "INF_MUNICIPIO": "Almada"
        },
        {
            "type": "Carris_Metropolitana",
            "Longitude": -9.176628,
            "Latitude": 38.591827,
            "INF_NOME": "a definir",
            "INF_LOCALIDADE": "Almada",
            "INF_MUNICIPIO": "Almada"
        },
        {
            "type": "Carris_Metropolitana",
            "Longitude": -9.176588,
            "Latitude": 38.59175,
            "INF_NOME": "a definir",
            "INF_LOCALIDADE": "Almada",
            "INF_MUNICIPIO": "Almada"
        },
        {
            "type": "Carris_Metropolitana",
            "Longitude": -9.170997,
            "Latitude": 38.583987,
            "INF_NOME": "a definir",
            "INF_LOCALIDADE": "Aroeira",
            "INF_MUNICIPIO": "Almada"
        },
        {
            "type": "Carris_Metropolitana",
            "Longitude": -9.170383,
            "Latitude": 38.584336,
            "INF_NOME": "a definir",
            "INF_LOCALIDADE": "Aroeira",
            "INF_MUNICIPIO": "Almada"
        },
        {
            "type": "Carris_Metropolitana",
            "Longitude": -9.178923,
            "Latitude": 38.600657,
            "INF_NOME": "a definir",
            "INF_LOCALIDADE": "Almada",
            "INF_MUNICIPIO": "Almada"
        },
        {
            "type": "Carris_Metropolitana",
            "Longitude": -9.182129,
            "Latitude": 38.600626,
            "INF_NOME": "a definir",
            "INF_LOCALIDADE": "Almada",
            "INF_MUNICIPIO": "Almada"
        },
        {
            "type": "Carris_Metropolitana",
            "Longitude": -9.186435,
            "Latitude": 38.600595,
            "INF_NOME": "a definir",
            "INF_LOCALIDADE": "Charneca da Caparica",
            "INF_MUNICIPIO": "Almada"
        },
        {
            "type": "Carris_Metropolitana",
            "Longitude": -9.191095,
            "Latitude": 38.667621,
            "INF_NOME": "a definir",
            "INF_LOCALIDADE": "Bairro Fundo Fomento",
            "INF_MUNICIPIO": "Almada"
        },
        {
            "type": "Carris_Metropolitana",
            "Longitude": -9.191208,
            "Latitude": 38.667425,
            "INF_NOME": "a definir",
            "INF_LOCALIDADE": "Bairro Fundo Fomento",
            "INF_MUNICIPIO": "Almada"
        },
        {
            "type": "Carris_Metropolitana",
            "Longitude": -9.188372,
            "Latitude": 38.667599,
            "INF_NOME": "a definir",
            "INF_LOCALIDADE": "Bairro Fundo Fomento",
            "INF_MUNICIPIO": "Almada"
        },
        {
            "type": "Carris_Metropolitana",
            "Longitude": -9.188285,
            "Latitude": 38.66783,
            "INF_NOME": "a definir",
            "INF_LOCALIDADE": "Bairro Fundo Fomento",
            "INF_MUNICIPIO": "Almada"
        },
        {
            "type": "Carris_Metropolitana",
            "Longitude": -9.187887,
            "Latitude": 38.669283,
            "INF_NOME": "a definir",
            "INF_LOCALIDADE": "Almada",
            "INF_MUNICIPIO": "Almada"
        },
        {
            "type": "Carris_Metropolitana",
            "Longitude": -9.18773,
            "Latitude": 38.669308,
            "INF_NOME": "a definir",
            "INF_LOCALIDADE": "Almada",
            "INF_MUNICIPIO": "Almada"
        },
        {
            "type": "Carris_Metropolitana",
            "Longitude": -9.187438,
            "Latitude": 38.67438,
            "INF_NOME": "a definir",
            "INF_LOCALIDADE": "Bairro Fundo Fomento",
            "INF_MUNICIPIO": "Almada"
        },
        {
            "type": "Carris_Metropolitana",
            "Longitude": -9.187507,
            "Latitude": 38.674494,
            "INF_NOME": "a definir",
            "INF_LOCALIDADE": "Bairro Fundo Fomento",
            "INF_MUNICIPIO": "Almada"
        },
        {
            "type": "Carris_Metropolitana",
            "Longitude": -9.189939,
            "Latitude": 38.671151,
            "INF_NOME": "a definir",
            "INF_LOCALIDADE": "Bairro Fundo Fomento",
            "INF_MUNICIPIO": "Almada"
        },
        {
            "type": "Carris_Metropolitana",
            "Longitude": -9.19011,
            "Latitude": 38.671174,
            "INF_NOME": "a definir",
            "INF_LOCALIDADE": "Bairro Fundo Fomento",
            "INF_MUNICIPIO": "Almada"
        },
        {
            "type": "Carris_Metropolitana",
            "Longitude": -9.189671,
            "Latitude": 38.669063,
            "INF_NOME": "a definir",
            "INF_LOCALIDADE": "Bairro Fundo Fomento",
            "INF_MUNICIPIO": "Almada"
        },
        {
            "type": "Carris_Metropolitana",
            "Longitude": -9.189521,
            "Latitude": 38.669169,
            "INF_NOME": "a definir",
            "INF_LOCALIDADE": "Bairro Fundo Fomento",
            "INF_MUNICIPIO": "Almada"
        },
        {
            "type": "Carris_Metropolitana",
            "Longitude": -9.185,
            "Latitude": 38.668699,
            "INF_NOME": "a definir",
            "INF_LOCALIDADE": "Bairro Fundo Fomento",
            "INF_MUNICIPIO": "Almada"
        },
        {
            "type": "Carris_Metropolitana",
            "Longitude": -9.183528,
            "Latitude": 38.66914,
            "INF_NOME": "a definir",
            "INF_LOCALIDADE": "Bairro Fundo Fomento",
            "INF_MUNICIPIO": "Almada"
        },
        {
            "type": "Carris_Metropolitana",
            "Longitude": -9.183454,
            "Latitude": 38.669011,
            "INF_NOME": "a definir",
            "INF_LOCALIDADE": "Bairro Fundo Fomento",
            "INF_MUNICIPIO": "Almada"
        },
        {
            "type": "Carris_Metropolitana",
            "Longitude": -9.180348,
            "Latitude": 38.670614,
            "INF_NOME": "a definir",
            "INF_LOCALIDADE": "Bairro Fundo Fomento",
            "INF_MUNICIPIO": "Almada"
        },
        {
            "type": "Carris_Metropolitana",
            "Longitude": -9.178177,
            "Latitude": 38.670754,
            "INF_NOME": "a definir",
            "INF_LOCALIDADE": "Almada",
            "INF_MUNICIPIO": "Almada"
        },
        {
            "type": "Carris_Metropolitana",
            "Longitude": -9.178501,
            "Latitude": 38.670683,
            "INF_NOME": "a definir",
            "INF_LOCALIDADE": "Almada",
            "INF_MUNICIPIO": "Almada"
        },
        {
            "type": "Carris_Metropolitana",
            "Longitude": -9.18137,
            "Latitude": 38.667741,
            "INF_NOME": "a definir",
            "INF_LOCALIDADE": "Almada",
            "INF_MUNICIPIO": "Almada"
        },
        {
            "type": "Carris_Metropolitana",
            "Longitude": -9.180188,
            "Latitude": 38.666514,
            "INF_NOME": "a definir",
            "INF_LOCALIDADE": "Pragal",
            "INF_MUNICIPIO": "Almada"
        },
        {
            "type": "Carris_Metropolitana",
            "Longitude": -9.180547,
            "Latitude": 38.66662,
            "INF_NOME": "a definir",
            "INF_LOCALIDADE": "Pragal",
            "INF_MUNICIPIO": "Almada"
        },
        {
            "type": "Carris_Metropolitana",
            "Longitude": -9.175653,
            "Latitude": 38.671633,
            "INF_NOME": "Ft. Hospital Garcia de Orta",
            "INF_LOCALIDADE": "Pragal",
            "INF_MUNICIPIO": "Almada"
        },
        {
            "type": "Carris_Metropolitana",
            "Longitude": -9.170088,
            "Latitude": 38.672449,
            "INF_NOME": "a definir",
            "INF_LOCALIDADE": "Pragal",
            "INF_MUNICIPIO": "Almada"
        },
        {
            "type": "Carris_Metropolitana",
            "Longitude": -9.170012,
            "Latitude": 38.672505,
            "INF_NOME": "a definir",
            "INF_LOCALIDADE": "Pragal",
            "INF_MUNICIPIO": "Almada"
        },
        {
            "type": "Carris_Metropolitana",
            "Longitude": -9.165406,
            "Latitude": 38.670607,
            "INF_NOME": "a definir",
            "INF_LOCALIDADE": "Cova da Piedade",
            "INF_MUNICIPIO": "Almada"
        },
        {
            "type": "Carris_Metropolitana",
            "Longitude": -9.165524,
            "Latitude": 38.670512,
            "INF_NOME": "a definir",
            "INF_LOCALIDADE": "Cova da Piedade",
            "INF_MUNICIPIO": "Almada"
        },
        {
            "type": "Carris_Metropolitana",
            "Longitude": -9.164768,
            "Latitude": 38.669628,
            "INF_NOME": "a definir",
            "INF_LOCALIDADE": "Cova da Piedade",
            "INF_MUNICIPIO": "Almada"
        },
        {
            "type": "Carris_Metropolitana",
            "Longitude": -9.164927,
            "Latitude": 38.669677,
            "INF_NOME": "a definir",
            "INF_LOCALIDADE": "Cova da Piedade",
            "INF_MUNICIPIO": "Almada"
        },
        {
            "type": "Carris_Metropolitana",
            "Longitude": -9.162749,
            "Latitude": 38.669279,
            "INF_NOME": "a definir",
            "INF_LOCALIDADE": "Cova da Piedade",
            "INF_MUNICIPIO": "Almada"
        },
        {
            "type": "Carris_Metropolitana",
            "Longitude": -9.162861,
            "Latitude": 38.669411,
            "INF_NOME": "a definir",
            "INF_LOCALIDADE": "Cova da Piedade",
            "INF_MUNICIPIO": "Almada"
        },
        {
            "type": "Carris_Metropolitana",
            "Longitude": -9.164113,
            "Latitude": 38.668648,
            "INF_NOME": "a definir",
            "INF_LOCALIDADE": "Cova da Piedade",
            "INF_MUNICIPIO": "Almada"
        },
        {
            "type": "Carris_Metropolitana",
            "Longitude": -9.17234,
            "Latitude": 38.673106,
            "INF_NOME": "a definir",
            "INF_LOCALIDADE": "Pragal",
            "INF_MUNICIPIO": "Almada"
        },
        {
            "type": "Carris_Metropolitana",
            "Longitude": -9.172504,
            "Latitude": 38.673184,
            "INF_NOME": "a definir",
            "INF_LOCALIDADE": "Pragal",
            "INF_MUNICIPIO": "Almada"
        },
        {
            "type": "Carris_Metropolitana",
            "Longitude": -9.175129,
            "Latitude": 38.672398,
            "INF_NOME": "a definir",
            "INF_LOCALIDADE": "Pragal",
            "INF_MUNICIPIO": "Almada"
        },
        {
            "type": "Carris_Metropolitana",
            "Longitude": -9.180752,
            "Latitude": 38.66791,
            "INF_NOME": "a definir",
            "INF_LOCALIDADE": "Almada",
            "INF_MUNICIPIO": "Almada"
        },
        {
            "type": "Carris_Metropolitana",
            "Longitude": -9.181053,
            "Latitude": 38.670408,
            "INF_NOME": "a definir",
            "INF_LOCALIDADE": "Bairro Fundo Fomento",
            "INF_MUNICIPIO": "Almada"
        },
        {
            "type": "Carris_Metropolitana",
            "Longitude": -9.197159,
            "Latitude": 38.677454,
            "INF_NOME": "a definir",
            "INF_LOCALIDADE": "Almada",
            "INF_MUNICIPIO": "Almada"
        },
        {
            "type": "Carris_Metropolitana",
            "Longitude": -9.197384,
            "Latitude": 38.674169,
            "INF_NOME": "a definir",
            "INF_LOCALIDADE": "Monte da Caparica",
            "INF_MUNICIPIO": "Almada"
        },
        {
            "type": "Carris_Metropolitana",
            "Longitude": -9.197267,
            "Latitude": 38.674157,
            "INF_NOME": "a definir",
            "INF_LOCALIDADE": "Monte da Caparica",
            "INF_MUNICIPIO": "Almada"
        },
        {
            "type": "Carris_Metropolitana",
            "Longitude": -9.195245,
            "Latitude": 38.669788,
            "INF_NOME": "a definir",
            "INF_LOCALIDADE": "Monte da Caparica",
            "INF_MUNICIPIO": "Almada"
        },