{
    "features": [
        {
            "type": "Escolas_Privadas_Pré-Escolar",
            "Longitude": -9.21105689438628,
            "Latitude": 38.6955782682932,
            "INF_NOME": "Colégio do Bom Sucesso",
            "INF_MORADA": "Rua Bartolomeu Dias, 53\n",
            "INF_TELEFONE": "213010442",
            "INF_EMAIL": "cl.bomsucesso@escolas.min-edu.pt; ",
            "INF_SITE": "https://www.colegiobomsucesso.pt/",
            "FREGUESIA": "Belém"
        },
        {
            "type": "Escolas_Privadas_Pré-Escolar",
            "Longitude": -9.21778702343492,
            "Latitude": 38.6962550552106,
            "INF_NOME": "Cooperativa \"A Torre\"",
            "INF_MORADA": "Praça Malaca n.3",
            "INF_TELEFONE": "+351 213 011 407",
            "INF_EMAIL": "ext.atorre@escolas.min-edu.pt; geral@atorre.pt",
            "INF_SITE": "https://atorre.pt/",
            "FREGUESIA": "Belém"
        },
        {
            "type": "Escolas_Privadas_Pré-Escolar",
            "Longitude": -9.22490182183578,
            "Latitude": 38.6973174716166,
            "INF_NOME": "Externato \"A Escolinha\"",
            "INF_MORADA": "Rua Fernão Mendes Pinto, 41",
            "INF_TELEFONE": "+351 213 014 452",
            "INF_EMAIL": "ext.aescolinha@escolas.min-edu.pt",
            "INF_SITE": "https://www.externatoescolinha.pt/",
            "FREGUESIA": "Belém"
        },
        {
            "type": "Escolas_Privadas_Pré-Escolar",
            "Longitude": -9.20455166908721,
            "Latitude": 38.6981847799535,
            "INF_NOME": "Abrigo Infantil de Stª Mª de Belém - Centro Paroquial Stª Maria de Belém",
            "INF_MORADA": "Largo dos Jerónimos, 3 - 2º",
            "INF_TELEFONE": "+351 918596785",
            "INF_EMAIL": "ainfantilstambelem@escolas.min-edu.pt",
            "INF_SITE": null,
            "FREGUESIA": "Belém"
        },
        {
            "type": "Escolas_Privadas_Pré-Escolar",
            "Longitude": -9.21387463116011,
            "Latitude": 38.6991154533748,
            "INF_NOME": "Escola Raiz",
            "INF_MORADA": "Avenida Torre de Belém, 30",
            "INF_TELEFONE": "+351 213 042 080",
            "INF_EMAIL": "esc.raiz@escolas.min-edu.pt",
            "INF_SITE": "https://escolaraiz.pt/",
            "FREGUESIA": "Belém"
        },
        {
            "type": "Escolas_Privadas_Pré-Escolar",
            "Longitude": -9.21678904195639,
            "Latitude": 38.7003230692185,
            "INF_NOME": "Jardim Infantil \"O Nosso Colégio\"",
            "INF_MORADA": "Rua Fernão Lopes de Castanheda, 7",
            "INF_TELEFONE": "+351 914 968 527",
            "INF_EMAIL": "ji.onossocolegio@escolas.min-edu.pt",
            "INF_SITE": "http://www.onossocolegio.com/",
            "FREGUESIA": "Belém"
        },
        {
            "type": "Escolas_Privadas_Pré-Escolar",
            "Longitude": -9.22088488160009,
            "Latitude": 38.7008225309156,
            "INF_NOME": "Colégio Mira Rio",
            "INF_MORADA": "Estrada de Telheiras, n.º 113\n",
            "INF_TELEFONE": "213030480",
            "INF_EMAIL": "ext.mirario@escolas.min-edu.pt",
            "INF_SITE": "http://www.colegiomirario.pt",
            "FREGUESIA": "Belém"
        },
        {
            "type": "Escolas_Privadas_Pré-Escolar",
            "Longitude": -9.18555345328179,
            "Latitude": 38.7043368328942,
            "INF_NOME": "Creche - Jardim Infantil de Stº Amaro",
            "INF_MORADA": "Rua Jau, 42",
            "INF_TELEFONE": "+351 213 644 674",
            "INF_EMAIL": "cre.lisboa@escolas.min-edu.pt",
            "INF_SITE": null,
            "FREGUESIA": "Alcântara"
        },
        {
            "type": "Escolas_Privadas_Pré-Escolar",
            "Longitude": -9.18056873392719,
            "Latitude": 38.7051483791421,
            "INF_NOME": "Escola \"Avé-Maria\"",
            "INF_MORADA": "Rua dos Lusíadas, 49 R/ch",
            "INF_TELEFONE": "+351 213 610 970",
            "INF_EMAIL": "esc.avemaria@escolas.min-edu.pt",
            "INF_SITE": "https://escola-avemaria.com/",
            "FREGUESIA": "Alcântara"
        },
        {
            "type": "Escolas_Privadas_Pré-Escolar",
            "Longitude": -9.19908825041509,
            "Latitude": 38.7055132437124,
            "INF_NOME": "Escola Privativa nº 6 de \"A Voz do Operário\"",
            "INF_MORADA": "Calçada da Ajuda, 234 - R/C ",
            "INF_TELEFONE": "+351 213 645 710",
            "INF_EMAIL": "esc.n6.avdooperario@escolas.min-edu.pt",
            "INF_SITE": "http://www.vozoperario.pt/",
            "FREGUESIA": "Ajuda"
        },
        {
            "type": "Escolas_Privadas_Pré-Escolar",
            "Longitude": -9.1773026152118,
            "Latitude": 38.7057330310455,
            "INF_NOME": "Jardim Infantil \"Beloquitas\"",
            "INF_MORADA": "Rua José Dias Coelho, 32 - R/ch Esq.",
            "INF_TELEFONE": "+351 213 637 327",
            "INF_EMAIL": "ji.beloquitas@escolas.min-edu.pt",
            "INF_SITE": "https://crechejardimdeinfanciabeloquitas.pt/",
            "FREGUESIA": "Alcântara"
        },
        {
            "type": "Escolas_Privadas_Pré-Escolar",
            "Longitude": -9.15892634078667,
            "Latitude": 38.7060200095971,
            "INF_NOME": "Casa Pastorinhos de Fátima - Creche e Jardim de Infância da Assistência Paroquial Santos-O-Velho",
            "INF_MORADA": "Rua das Janelas Verdes, 11",
            "INF_TELEFONE": "+351 213 961 124",
            "INF_EMAIL": "apsantosovelho@escolas.min-edu.pt",
            "INF_SITE": "http://www.apsov.pt/",
            "FREGUESIA": "Estrela"
        },
        {
            "type": "Escolas_Privadas_Pré-Escolar",
            "Longitude": -9.18737223128539,
            "Latitude": 38.7069607295039,
            "INF_NOME": "Jardim Infantil \"Chiquinha\" - Escola Prep. Francisco Arruda",
            "INF_MORADA": "Calçada da Tapada, 152",
            "INF_TELEFONE": "+351 213 639 137",
            "INF_EMAIL": "ji.chiquinha@escolas.min-edu.pt",
            "INF_SITE": "https://aefarruda.pt/portal/",
            "FREGUESIA": "Alcântara"
        },
        {
            "type": "Escolas_Privadas_Pré-Escolar",
            "Longitude": -9.16071881062816,
            "Latitude": 38.7076717941987,
            "INF_NOME": "Centro Social Sagrado Coração de Jesus - Sede",
            "INF_MORADA": "Rua de São Félix, 15 - Porta 29",
            "INF_TELEFONE": "+351 213 902 112",
            "INF_EMAIL": "cs.scoracaojesus@escolas.min-edu.pt",
            "INF_SITE": "http://www.csscj.pt",
            "FREGUESIA": "Estrela"
        },
        {
            "type": "Escolas_Privadas_Pré-Escolar",
            "Longitude": -9.1895980580333,
            "Latitude": 38.7074333828771,
            "INF_NOME": "Centro Cultural e Recreativo Crianças Cruzeiro Rio Seco",
            "INF_MORADA": "Rua Dom João de Castro, 86",
            "INF_TELEFONE": "+351 213 644 465",
            "INF_EMAIL": "cc.rccruzeirorioseco@escolas.min-edu.pt",
            "INF_SITE": "https://ccrccr.pt/",
            "FREGUESIA": "Ajuda"
        },
        {
            "type": "Escolas_Privadas_Pré-Escolar",
            "Longitude": -9.19576764069437,
            "Latitude": 38.7079505291393,
            "INF_NOME": "Jardim de Infância da Associação de Proteção à Infância Da Ajuda - APIA",
            "INF_MORADA": "Largo da Ajuda, 2\n",
            "INF_TELEFONE": "+351 213 647 808",
            "INF_EMAIL": "ass.pinfanciaajuda@escolas.min-edu.pt",
            "INF_SITE": "https://apiaajuda.com/",
            "FREGUESIA": "Ajuda"
        },
        {
            "type": "Escolas_Privadas_Pré-Escolar",
            "Longitude": -9.2070436931536,
            "Latitude": 38.7078784830323,
            "INF_NOME": "Externato \"As Descobertas\"",
            "INF_MORADA": "Rua Capitão-Mor Pedro Teixeira, 11",
            "INF_TELEFONE": "+351 213 031 060",
            "INF_EMAIL": "ext.asdescobertas@escolas.min-edu.pt; geral@exdescobertas.pt",
            "INF_SITE": "http://www.exdescobertas.com",
            "FREGUESIA": "Belém"
        },
        {
            "type": "Escolas_Privadas_Pré-Escolar",
            "Longitude": -9.16149374431217,
            "Latitude": 38.7083117153173,
            "INF_NOME": "Centro Social do Sagrado Coração de Jesus",
            "INF_MORADA": "Rua de São Domingos, à Lapa, 60",
            "INF_TELEFONE": "+351 938855205",
            "INF_EMAIL": "secretaria@centrosscj.com",
            "INF_SITE": "https://centrosscj.com/",
            "FREGUESIA": "Estrela"
        },
        {
            "type": "Escolas_Privadas_Pré-Escolar",
            "Longitude": -9.21612286682861,
            "Latitude": 38.7083730941263,
            "INF_NOME": "Park International School - Restelo",
            "INF_MORADA": "Avenida das Descobertas, 21-21A;",
            "INF_TELEFONE": "213026316",
            "INF_EMAIL": "all@park-is.com",
            "INF_SITE": "http://www.park-is.com/",
            "FREGUESIA": "Belém"
        },
        {
            "type": "Escolas_Privadas_Pré-Escolar",
            "Longitude": -9.15918740962485,
            "Latitude": 38.7093089069013,
            "INF_NOME": "Colégio de Santa Maria",
            "INF_MORADA": "Rua das Praças, 15- 17\n\n",
            "INF_TELEFONE": "+351 213 961 875",
            "INF_EMAIL": "cl.stamarialisboa@escolas.min-edu.pt; ",
            "INF_SITE": "https://colegiodesantamaria.pt/",
            "FREGUESIA": "Estrela"
        },
        {
            "type": "Escolas_Privadas_Pré-Escolar",
            "Longitude": -9.1515753918548,
            "Latitude": 38.7098270178723,
            "INF_NOME": "Externato Infantil \"O Nosso Jardim\"",
            "INF_MORADA": "Rua Poço dos Negros, 113\n",
            "INF_TELEFONE": "+351 213 901 658",
            "INF_EMAIL": "ext.onjardimspaulo@escolas.min-edu.pt\tPrivado",
            "INF_SITE": "http://www.eseimu.pt/onossojardim",
            "FREGUESIA": "Misericórdia"
        },
        {
            "type": "Escolas_Privadas_Pré-Escolar",
            "Longitude": -9.19854348839926,
            "Latitude": 38.7095169719595,
            "INF_NOME": "Jardim de Infância da Associação Actividades Sociais do Bairro 2 de Maio",
            "INF_MORADA": "Largo do Cantinho",
            "INF_TELEFONE": "+351 213 632 399",
            "INF_EMAIL": "ass.asociais2maio@escolas.min-edu.pt",
            "INF_SITE": "https://www.facebook.com/people/Associa%C3%A7%C3%A3o-de-Actividades-Sociais-do-Bairro-2-de-Maio/100057580925659/",
            "FREGUESIA": "Ajuda"
        },
        {
            "type": "Escolas_Privadas_Pré-Escolar",
            "Longitude": -9.16054943035068,
            "Latitude": 38.710152383018,
            "INF_NOME": "Jardim Infantil do Patronato Cristo-Rei",
            "INF_MORADA": "Rua da Lapa, 84 - 1º",
            "INF_TELEFONE": "+351 213 960 402",
            "INF_EMAIL": "ji.pcristorei@escolas.min-edu.pt",
            "INF_SITE": null,
            "FREGUESIA": "Estrela"
        },
        {
            "type": "Escolas_Privadas_Pré-Escolar",
            "Longitude": -9.21602949811176,
            "Latitude": 38.7101209752386,
            "INF_NOME": "Externato de São José",
            "INF_MORADA": "Avenida das Descobertas, 27",
            "INF_TELEFONE": "+351 213 037 020",
            "INF_EMAIL": "ext.sjose@escolas.min-edu.pt",
            "INF_SITE": "http://www.esj.edu.pt",
            "FREGUESIA": "Belém"
        },
        {
            "type": "Escolas_Privadas_Pré-Escolar",
            "Longitude": -9.15693113098338,
            "Latitude": 38.7113205303154,
            "INF_NOME": "Externato \"O Lar da Criança\"",
            "INF_MORADA": "Rua Almeida Brandão, 25\n",
            "INF_TELEFONE": "+351 213 965 000",
            "INF_EMAIL": "ext.olardacrianca@escolas.min-edu.pt",
            "INF_SITE": "https://www.lardacrianca.pt/",
            "FREGUESIA": "Estrela"
        },
        {
            "type": "Escolas_Privadas_Pré-Escolar",
            "Longitude": -9.12849828391046,
            "Latitude": 38.7117649412824,
            "INF_NOME": "Jardim de Infância do Centro Paroquial de Bem Estar Social de Alfama",
            "INF_MORADA": "Beco Da Bicha , nº 3 A\n",
            "INF_TELEFONE": "+351 218 875 045",
            "INF_EMAIL": "cp.bemestaralfama@escolas.min-edu.pt",
            "INF_SITE": "www.centroparoquialalfama.com",
            "FREGUESIA": "Santa Maria Maior"
        },
        {
            "type": "Escolas_Privadas_Pré-Escolar",
            "Longitude": -9.15689801740131,
            "Latitude": 38.7122215985591,
            "INF_NOME": "Obra das Crianças da Freguesia da Lapa",
            "INF_MORADA": "Rua Borges Carneiro, 65\n",
            "INF_TELEFONE": "+351 213 964 719",
            "INF_EMAIL": "obradascriancas.secretaria@gmail.com",
            "INF_SITE": "https://ocfl.webnode.pt/",
            "FREGUESIA": "Estrela"
        },
        {
            "type": "Escolas_Privadas_Pré-Escolar",
            "Longitude": -9.14457675330647,
            "Latitude": 38.7134293023674,
            "INF_NOME": "Jardim Infantil de Calafates (Fundação D.Pedro IV)",
            "INF_MORADA": "Rua do Diário de Notícias, 133",
            "INF_TELEFONE": "+351 213 422 417",
            "INF_EMAIL": "ji.calafates@escolas.min-edu.pt",
            "INF_SITE": "http://www.fundacaodpedroiv.org",
            "FREGUESIA": "Misericórdia"
        },
        {
            "type": "Escolas_Privadas_Pré-Escolar",
            "Longitude": -9.13123371391466,
            "Latitude": 38.7136507921305,
            "INF_NOME": "Jardim De Infância Do Centro Social Do Menino De Deus",
            "INF_MORADA": "Calçada do Menino Deus, 27\n",
            "INF_TELEFONE": "+351 218 863 535",
            "INF_EMAIL": "cs.meninodeus@escolas.min-edu.pt",
            "INF_SITE": "https://www.facebook.com/centrosocialdomeninodeus/",
            "FREGUESIA": "Santa Maria Maior"
        },
        {
            "type": "Escolas_Privadas_Pré-Escolar",
            "Longitude": -9.21182430811985,
            "Latitude": 38.7129825135033,
            "INF_NOME": "Colégio Helen Keller",
            "INF_MORADA": "Rua Dr. Mário Moutinho, 20",
            "INF_TELEFONE": "+351 213 011 932",
            "INF_EMAIL": "geral@colegiohelenkeller.pt",
            "INF_SITE": "http://www.centrohelenkeller.pt",
            "FREGUESIA": "Belém"
        },
        {
            "type": "Escolas_Privadas_Pré-Escolar",
            "Longitude": -9.1642269908041,
            "Latitude": 38.7136443441855,
            "INF_NOME": "Escola Nossa Senhora Do Patrocínio - Assistência Infantil Freguesia Santa Isabel",
            "INF_MORADA": "Rua do Patrocínio, 3",
            "INF_TELEFONE": "+351 213 942 560",
            "INF_EMAIL": "aistaisabel@sapo.pt",
            "INF_SITE": null,
            "FREGUESIA": "Estrela"
        },
        {
            "type": "Escolas_Privadas_Pré-Escolar",
            "Longitude": -9.16135366569931,
            "Latitude": 38.7140939110152,
            "INF_NOME": "Infantário Cooperativo de Campo de Ourique",
            "INF_MORADA": "Rua Domingos Sequeira, 12",
            "INF_TELEFONE": "+351 213 964 673",
            "INF_EMAIL": "icco.infantario@gmail.com",
            "INF_SITE": "https://iccampoourique.pt/",
            "FREGUESIA": "Estrela"
        },
        {
            "type": "Escolas_Privadas_Pré-Escolar",
            "Longitude": -9.14345150476166,
            "Latitude": 38.7148613717066,
            "INF_NOME": "Jardim de Infância do Centro Social Paroquial Nossa Senhora da Encarnação",
            "INF_MORADA": "Travessa do Rosário, 31-31A\n",
            "INF_TELEFONE": "+351 213 467 248",
            "INF_EMAIL": "ji.cspnsraencarnacao@escolas.min-edu.pt",
            "INF_SITE": "https://cspencarnacao.webnode.pt/",
            "FREGUESIA": "Misericórdia"
        },
        {
            "type": "Escolas_Privadas_Pré-Escolar",
            "Longitude": -9.14901183580862,
            "Latitude": 38.7149132559878,
            "INF_NOME": "Associação Jardim de Infância da ADECO",
            "INF_MORADA": "Rua da Palmeira, 11",
            "INF_TELEFONE": "+351 213 427 887",
            "INF_EMAIL": "ass.dcmercesadeco@escolas.min-edu.pt",
            "INF_SITE": "https://www.adeco-jim.com/",
            "FREGUESIA": "Misericórdia"
        },
        {
            "type": "Escolas_Privadas_Pré-Escolar",
            "Longitude": -9.12916825879552,
            "Latitude": 38.7155960991548,
            "INF_NOME": "Escola Privativa n.º 1 de A Voz do Operário",
            "INF_MORADA": "Rua da Voz do Operário, 13",
            "INF_TELEFONE": "+351 218 862 155",
            "INF_EMAIL": "esc.n1.avdooperario@escolas.min-edu.pt",
            "INF_SITE": "http://www.vozoperario.pt",
            "FREGUESIA": "São Vicente"
        },
        {
            "type": "Escolas_Privadas_Pré-Escolar",
            "Longitude": -9.16102611822546,
            "Latitude": 38.7155651676589,
            "INF_NOME": "Externato \"Rainha Dona Amélia\"",
            "INF_MORADA": "Rua da Estrela, 65 - 1º",
            "INF_TELEFONE": "+351 213 942 090",
            "INF_EMAIL": "ext.rainhadonaamelia@escolas.min-edu.pt",
            "INF_SITE": "http://www.externatorainhadonaamelia.com.pt",
            "FREGUESIA": "Estrela"
        },
        {
            "type": "Escolas_Privadas_Pré-Escolar",
            "Longitude": -9.16339260598714,
            "Latitude": 38.7158056248644,
            "INF_NOME": "Escola \"Pedro Nunes\"",
            "INF_MORADA": "Rua Saraiva de Carvalho, 216 - 1º\n\n",
            "INF_TELEFONE": "+251 213 961 943",
            "INF_EMAIL": "esc.pedronunes@escolas.min-edu.pt",
            "INF_SITE": "http://www.e-pedro-nunes.rcts.pt",
            "FREGUESIA": "Campo de Ourique"
        },
        {
            "type": "Escolas_Privadas_Pré-Escolar",
            "Longitude": -9.12952315998037,
            "Latitude": 38.7161836387199,
            "INF_NOME": "Jardim Infantil de S. Vicente (Fundação D. Pedro IV)",
            "INF_MORADA": "Rua da Voz do Operário, 19",
            "INF_TELEFONE": "+351 218 864 023",
            "INF_EMAIL": "ji.svicentelisboa@escolas.min-edu.pt",
            "INF_SITE": "http://www.fundacaodpedroiv.org",
            "FREGUESIA": "São Vicente"
        },
        {
            "type": "Escolas_Privadas_Pré-Escolar",
            "Longitude": -9.15803366760034,
            "Latitude": 38.7163238310871,
            "INF_NOME": "Jardim Escola João de Deus Lisboa/Estrela",
            "INF_MORADA": "Avenida Álvares Cabral, 69 - A",
            "INF_TELEFONE": "+351 213 906 510",
            "INF_EMAIL": "estrela@escolasjoaodeus.pt",
            "INF_SITE": "https://estrela.escolasjoaodeus.pt/",
            "FREGUESIA": "Campo de Ourique"
        },
        {
            "type": "Escolas_Privadas_Pré-Escolar",
            "Longitude": -9.158097068875,
            "Latitude": 38.7172556325106,
            "INF_NOME": "Jardim de Infância da Casa de Infância de Santa Quitéria (Fundação D. Pedro Iv)",
            "INF_MORADA": "Rua de Santa Isabel, 87",
            "INF_TELEFONE": "+351 213 966 547",
            "INF_EMAIL": "ji.scail@escolas.min-edu.pt",
            "INF_SITE": "http://www.fundacaodpedroiv.org",
            "FREGUESIA": "Campo de Ourique"
        },
        {
            "type": "Escolas_Privadas_Pré-Escolar",
            "Longitude": -9.17332711123812,
            "Latitude": 38.7171549053328,
            "INF_NOME": "Jardim Infantil do Centro Social José Luís Coelho",
            "INF_MORADA": "Rua Costa Pimenta, Fracções A e B\n\n",
            "INF_TELEFONE": "+351 213 977 927",
            "INF_EMAIL": "ji.cscasalventoso@escolas.min-edu.pt",
            "INF_SITE": "https://centro-social-jose-luis-coelho.negocio.site/",
            "FREGUESIA": "Campo de Ourique"
        },
        {
            "type": "Escolas_Privadas_Pré-Escolar",
            "Longitude": -9.21144920624213,
            "Latitude": 38.7169764579266,
            "INF_NOME": "Jardim Infantil do Centro Social Paroq. S. Vicente Paulo",
            "INF_MORADA": "Rua da Igreja, 1 - Bairro da Serafina",
            "INF_TELEFONE": "+351 213 714 700",
            "INF_EMAIL": "ji.cpsvicentepaulo@escolas.min-edu.pt",
            "INF_SITE": "http://www.cspsvp.com.sapo.pt",
            "FREGUESIA": "Belém"
        },
        {
            "type": "Escolas_Privadas_Pré-Escolar",
            "Longitude": -9.13935104786909,
            "Latitude": 38.7177726187606,
            "INF_NOME": "Jardim Infantil do Centro Social Paroquial da Pena  ",
            "INF_MORADA": "Travessa da Pena à Calçada de Santana",
            "INF_TELEFONE": "+351 218 852 573",
            "INF_EMAIL": "coordenacao@infantariodapena.pt",
            "INF_SITE": "https://infantariodapena.pt/",
            "FREGUESIA": "Arroios"
        },
        {
            "type": "Escolas_Privadas_Pré-Escolar",
            "Longitude": -9.16161412224132,
            "Latitude": 38.7178038706705,
            "INF_NOME": "Escola do Grémio de Instrução Liberal de Campo de Ourique",
            "INF_MORADA": "Largo Doutor António Viana 4",
            "INF_TELEFONE": "+351 213 959 010",
            "INF_EMAIL": "esc.gilcampoourique@escolas.min-edu.pt",
            "INF_SITE": "http://www.gremionet.com",
            "FREGUESIA": "Campo de Ourique"
        },
        {
            "type": "Escolas_Privadas_Pré-Escolar",
            "Longitude": -9.16577285878473,
            "Latitude": 38.7188155634248,
            "INF_NOME": "Jardim de Infância D. João II",
            "INF_MORADA": "Rua Tomás de Anunciação, 83 - R/ch\n\n",
            "INF_TELEFONE": "+351 213 888 572",
            "INF_EMAIL": "ji.djoaoii@escolas.min-edu.pt",
            "INF_SITE": null,
            "FREGUESIA": "Campo de Ourique"
        },
        {
            "type": "Escolas_Privadas_Pré-Escolar",
            "Longitude": -9.16675787622073,
            "Latitude": 38.7188539373152,
            "INF_NOME": "Redbridge School",
            "INF_MORADA": "Rua Francisco Metrass, 95;",
            "INF_TELEFONE": "210522550",
            "INF_EMAIL": "info@redbridgeschool.com",
            "INF_SITE": "http://www.redbridgeschool.com/",
            "FREGUESIA": "Campo de Ourique"
        },
        {
            "type": "Escolas_Privadas_Pré-Escolar",
            "Longitude": -9.15944105352633,
            "Latitude": 38.7190246563738,
            "INF_NOME": "Colégio Place4all",
            "INF_MORADA": "Rua da Páscoa, 62-B",
            "INF_TELEFONE": "210488170",
            "INF_EMAIL": "geralplace4all@gmail.com",
            "INF_SITE": "https://place4all.pt/",
            "FREGUESIA": "Campo de Ourique"
        },
        {
            "type": "Escolas_Privadas_Pré-Escolar",
            "Longitude": -9.1400035067287,
            "Latitude": 38.7193379344951,
            "INF_NOME": "Jardim de Infância da Casa da Infância de Santana - Fundação Dom Pedro IV",
            "INF_MORADA": "Travessa do Torel, 1",
            "INF_TELEFONE": "+351 218 802 038",
            "INF_EMAIL": "ji.santanalisboa@escolas.min-edu.pt",
            "INF_SITE": "http://www.fundacaodpedroiv.org",
            "FREGUESIA": "Arroios"
        },
        {
            "type": "Escolas_Privadas_Pré-Escolar",
            "Longitude": -9.17139100366709,
            "Latitude": 38.719131670231,
            "INF_NOME": "Associação de Moradores do Casal Ventoso",
            "INF_MORADA": "Rua Maria Pia, 473",
            "INF_TELEFONE": "+351 213 832 701",
            "INF_EMAIL": "ass.casalventoso@escolas.min-edu.pt",
            "INF_SITE": null,
            "FREGUESIA": "Campo de Ourique"
        },
        {
            "type": "Escolas_Privadas_Pré-Escolar",
            "Longitude": -9.12087713325005,
            "Latitude": 38.7196660279599,
            "INF_NOME": "Jardim Infantil da Associação Stª Engrácia de Lisboa",
            "INF_MORADA": "Calçada dos Barbadinhos, 36 A\n",
            "INF_TELEFONE": "+351 218 150 946",
            "INF_EMAIL": "assantaengracia@sapo.pt",
            "INF_SITE": "http://associacaodesantaengracia.pt/",
            "FREGUESIA": "São Vicente"
        },
        {
            "type": "Escolas_Privadas_Pré-Escolar",
            "Longitude": -9.1300442883864,
            "Latitude": 38.7207140562308,
            "INF_NOME": "Jardim de Infância da Fundação Maria do Carmo Roque Pereira",
            "INF_MORADA": "Rua da Graça, 31 R/c",
            "INF_TELEFONE": "+351 218 864 040",
            "INF_EMAIL": "ji.fmcroquepereira@escolas.min-edu.pt",
            "INF_SITE": "http://fmcrp.com/",
            "FREGUESIA": "São Vicente"
        },
        {
            "type": "Escolas_Privadas_Pré-Escolar",
            "Longitude": -9.15322516355915,
            "Latitude": 38.7231531326732,
            "INF_NOME": "Jardim Infantil Os Pirralhos do Marquês",
            "INF_MORADA": "Rua Rodrigo da Fonseca 60 R/C Esq\n1250-193 LISBOA\n",
            "INF_TELEFONE": "+351 213867639",
            "INF_EMAIL": "ji.ospirralhosdomarques@escolas.min-edu.pt",
            "INF_SITE": null,
            "FREGUESIA": "Santo António"
        },
        {
            "type": "Escolas_Privadas_Pré-Escolar",
            "Longitude": -9.13501037313714,
            "Latitude": 38.7238646491303,
            "INF_NOME": "Externato Primário da Associação Pró-Infância Santo António de Lisboa",
            "INF_MORADA": "Avenida Almirante Reis, 38",
            "INF_TELEFONE": "+351 218 140 438",
            "INF_EMAIL": "ext.papisalisboa@escolas.min-edu.pt",
            "INF_SITE": "https://www.apisal.org/",
            "FREGUESIA": "Arroios"
        },
        {
            "type": "Escolas_Privadas_Pré-Escolar",
            "Longitude": -9.13713172637416,
            "Latitude": 38.7241846340344,
            "INF_NOME": "Jardim Infantil da Freguesia dos Anjos",
            "INF_MORADA": "Largo do Conde de Pombeiro, 12",
            "INF_TELEFONE": "+351 213 543 206",
            "INF_EMAIL": "ji.anjos@escolas.min-edu.pt",
            "INF_SITE": "https://www.jifanjos.com/",
            "FREGUESIA": "Arroios"
        },
        {
            "type": "Escolas_Privadas_Pré-Escolar",
            "Longitude": -9.15730349378222,
            "Latitude": 38.7253063272957,
            "INF_NOME": "Externato do Parque",
            "INF_MORADA": "Rua de Artilharia Um, 97",
            "INF_TELEFONE": "+351 213 882 094",
            "INF_EMAIL": "ext.parque@escolas.min-edu.pt",
            "INF_SITE": "https://www.externatodoparque.pt/",
            "FREGUESIA": "Campolide"
        },
        {
            "type": "Escolas_Privadas_Pré-Escolar",
            "Longitude": -9.12477532303253,
            "Latitude": 38.725959137845,
            "INF_NOME": "Jardim Infantil-Associação Da Penha De França",
            "INF_MORADA": "Rua Castelo Branco Saraiva, 94;",
            "INF_TELEFONE": "218146671",
            "INF_EMAIL": "ji.asspenhafranca@escolas.min-edu.pt",
            "INF_SITE": "https://apenhadefranca.com/",
            "FREGUESIA": "Penha de França"
        },
        {
            "type": "Escolas_Privadas_Pré-Escolar",
            "Longitude": -9.12580215943345,
            "Latitude": 38.7269684267685,
            "INF_NOME": "Jardim Infantil do Centro Social Paroquial Penha de França",
            "INF_MORADA": "Rua Francisco Pedro Curado, 1",
            "INF_TELEFONE": "+351 218 133 638",
            "INF_EMAIL": "ji.csppenhafranca@escolas.min-edu.pt",
            "INF_SITE": "https://csppf.pt/valencias/jardim-de-infancia/",
            "FREGUESIA": "Penha de França"
        },
        {
            "type": "Escolas_Privadas_Pré-Escolar",
            "Longitude": -9.13620203116502,
            "Latitude": 38.7269583185842,
            "INF_NOME": "Colégio do Largo",
            "INF_MORADA": "Av. de António José de Almeida, n.º 28\n\n",
            "INF_TELEFONE": "+351 218455930",
            "INF_EMAIL": "cl.largo@escolas.min-edu.pt; ",
            "INF_SITE": "https://www.colegiodolargo.com/",
            "FREGUESIA": "Arroios"
        },
        {
            "type": "Escolas_Privadas_Pré-Escolar",
            "Longitude": -9.13462467001642,
            "Latitude": 38.7275838410147,
            "INF_NOME": "Infantário Popular Ribeiro dos Santos",
            "INF_MORADA": "Avenida Almirante Reis, 70 - 1º Esq.\n",
            "INF_TELEFONE": "+351 218121429",
            "INF_EMAIL": "ass.pribeirosantos@escolas.min-edu.pt",
            "INF_SITE": "https://i-p-r-s.weebly.com/",
            "FREGUESIA": "Arroios"
        },
        {
            "type": "Escolas_Privadas_Pré-Escolar",
            "Longitude": -9.13660352427331,
            "Latitude": 38.7278214741809,
            "INF_NOME": "Externato Infantil e Primário \"Passos Manuel\"",
            "INF_MORADA": "Rua Passos Manuel, 24 - R/C Esq.\n",
            "INF_TELEFONE": "+351 213 561 383",
            "INF_EMAIL": "ext.passosmanuel@escolas.min-edu.pt",
            "INF_SITE": "http://www.ext.passosmanuel.com",
            "FREGUESIA": "Arroios"
        },
        {
            "type": "Escolas_Privadas_Pré-Escolar",
            "Longitude": -9.13111983664164,
            "Latitude": 38.7286432119348,
            "INF_NOME": "Externato \"Mãe de Deus\"",
            "INF_MORADA": "Rua da Penha de França, 243\n",
            "INF_TELEFONE": "+351 218 149 048",
            "INF_EMAIL": "ext.maededeus@escolas.min-edu.pt",
            "INF_SITE": "https://www.externatomaededeus.org/",
            "FREGUESIA": "Penha de França"
        },
        {
            "type": "Escolas_Privadas_Pré-Escolar",
            "Longitude": -9.13390219330257,
            "Latitude": 38.7290284033735,
            "INF_NOME": "Escola Selecta Prof. Doutor Amadeu Andrés",
            "INF_MORADA": "Quinta da Palmeira - Rua Marques da Silva, 79",
            "INF_TELEFONE": "+351 218 123 482",
            "INF_EMAIL": "esc.spdramadeuandres@escolas.min-edu.pt",
            "INF_SITE": "http://www.escolaselecta.com/",
            "FREGUESIA": "Arroios"
        },
        {
            "type": "Escolas_Privadas_Pré-Escolar",
            "Longitude": -9.1298257484022,
            "Latitude": 38.7300780603062,
            "INF_NOME": "Externato Nossa Senhora Penha de França",
            "INF_MORADA": "Travessa do Calado, 26",
            "INF_TELEFONE": "+351 218 140 704",
            "INF_EMAIL": "ext.nsrapenhafranca@escolas.min-edu.pt",
            "INF_SITE": "http://www.ext-n-sra-penha-franca.rcts.pt",
            "FREGUESIA": "Penha de França"
        },
        {
            "type": "Escolas_Privadas_Pré-Escolar",
            "Longitude": -9.13960680055559,
            "Latitude": 38.7300568514962,
            "INF_NOME": "Creche Mãe Maria",
            "INF_MORADA": "Travessa da Escola Araújo, 25-25A;",
            "INF_TELEFONE": "214787470",
            "INF_EMAIL": "sofiarodrigues@colegiomaemaria.pt",
            "INF_SITE": "http://www.colegiomaemaria.pt/",
            "FREGUESIA": "Arroios"
        },
        {
            "type": "Escolas_Privadas_Pré-Escolar",
            "Longitude": -9.13893720655262,
            "Latitude": 38.7305561412235,
            "INF_NOME": "Externato \"Sá de Miranda\"",
            "INF_MORADA": "Rua Alexandre Braga, 17 - 1º\n\n",
            "INF_TELEFONE": "+351 213 155 310",
            "INF_EMAIL": "ext.sademiranda@escolas.min-edu.pt",
            "INF_SITE": "http://www.colegiosdemiranda.com",
            "FREGUESIA": "Arroios"
        },
        {
            "type": "Escolas_Privadas_Pré-Escolar",
            "Longitude": -9.17230828741914,
            "Latitude": 38.7306232979899,
            "INF_NOME": "Educação Popular",
            "INF_MORADA": "Rua João Mota e Silva 3",
            "INF_TELEFONE": "213812990",
            "INF_EMAIL": "geral@educacaopopular.org",
            "INF_SITE": "https://www.educacaopopular.org/",
            "FREGUESIA": "Campolide"
        },
        {
            "type": "Escolas_Privadas_Pré-Escolar",
            "Longitude": -9.15088492376021,
            "Latitude": 38.7324425529506,
            "INF_NOME": "Jardim de Infância do Centro Social da Paróquia de São Sebastião da Pedreira",
            "INF_MORADA": "Rua Tomás Ribeiro, 62\n",
            "INF_TELEFONE": "+351 213 546 110",
            "INF_EMAIL": "csp.sspedreira@escolas.min-edu.pt",
            "INF_SITE": "https://www.cspssp.com/",
            "FREGUESIA": "Avenidas Novas"
        },
        {
            "type": "Escolas_Privadas_Pré-Escolar",
            "Longitude": -9.13980797761252,
            "Latitude": 38.7333502223353,
            "INF_NOME": "Jardim Infantil de Arroios (Fundação D.Pedro IV)",
            "INF_MORADA": "Rua da Ilha Terceira, 35",
            "INF_TELEFONE": "+351 213 556 386",
            "INF_EMAIL": "ji.arroios@escolas.min-edu.pt",
            "INF_SITE": "http://www.fundacaodpedroiv.org",
            "FREGUESIA": "Arroios"
        },
        {
            "type": "Escolas_Privadas_Pré-Escolar",
            "Longitude": -9.13660546975198,
            "Latitude": 38.735178427426,
            "INF_NOME": "Colégio do Sagrado Coração de Maria",
            "INF_MORADA": "Avenida Manuel da Maia, 2",
            "INF_TELEFONE": "+351 218 475 342",
            "INF_EMAIL": "cl.scmarialisboa@escolas.min-edu.pt",
            "INF_SITE": "http://www.cscm-lx.pt",
            "FREGUESIA": "Arroios"
        },
        {
            "type": "Escolas_Privadas_Pré-Escolar",
            "Longitude": -9.14559540599986,
            "Latitude": 38.7352953146901,
            "INF_NOME": "Colégio Académico",
            "INF_MORADA": "Avenida da República, 13 e 13C",
            "INF_TELEFONE": "+351 213 558 630",
            "INF_EMAIL": "cl.academico@escolas.min-edu.pt; ",
            "INF_SITE": "http://www.academico.edu.pt/",
            "FREGUESIA": "Avenidas Novas"
        },
        {
            "type": "Escolas_Privadas_Pré-Escolar",
            "Longitude": -9.13946913138481,
            "Latitude": 38.7357713220402,
            "INF_NOME": "Jardim Infantil da Associação do Pessoal do Instituto Superior Técnico",
            "INF_MORADA": "Avenida Rovisco Pais - Universidade\n",
            "INF_TELEFONE": "+351 218 417 314",
            "INF_EMAIL": "ji.apistecnico@escolas.min-edu.pt",
            "INF_SITE": "http://apist.ist.utl.pt",
            "FREGUESIA": "Areeiro"
        },
        {
            "type": "Escolas_Privadas_Pré-Escolar",
            "Longitude": -9.15533600901612,
            "Latitude": 38.7357005154863,
            "INF_NOME": "Externato \"A Ritinha\"",
            "INF_MORADA": "Avenida António Augusto de Aguiar, 179 R/C Dto\n\n",
            "INF_TELEFONE": "+351 213 878 699",
            "INF_EMAIL": "ext.aritinha@escolas.min-edu.pt",
            "INF_SITE": "https://www.externatoaritinha.com/",
            "FREGUESIA": "Avenidas Novas"
        },
        {
            "type": "Escolas_Privadas_Pré-Escolar",
            "Longitude": -9.14804186380758,
            "Latitude": 38.7357811817603,
            "INF_NOME": "Nova Escola João de Deus Ramos",
            "INF_MORADA": "Avenida João Crisóstomo, 35 - R/C  Esq.",
            "INF_TELEFONE": "+351 213 571 992",
            "INF_EMAIL": "novaescjoaodeusramos@escolas.min-edu.pt",
            "INF_SITE": "https://novaescolajoaodedeusramos.com/",
            "FREGUESIA": "Avenidas Novas"
        },
        {
            "type": "Escolas_Privadas_Pré-Escolar",
            "Longitude": -9.13562631207768,
            "Latitude": 38.7375288675353,
            "INF_NOME": "Externato\" Nobel\"",
            "INF_MORADA": "Alameda Dom Afonso Henriques, 78 - R/ch\n",
            "INF_TELEFONE": "+351 218 485 886",
            "INF_EMAIL": "ext.nobel@escolas.min-edu.pt",
            "INF_SITE": "https://www.externatonobel.pt/",
            "FREGUESIA": "Areeiro"
        },
        {
            "type": "Escolas_Privadas_Pré-Escolar",
            "Longitude": -9.14638240565185,
            "Latitude": 38.7385259350235,
            "INF_NOME": "Externato \"Infante D. Pedro\"",
            "INF_MORADA": "Avenida da República, 49 - R/ch\n\n",
            "INF_TELEFONE": "+351 217 973 322",
            "INF_EMAIL": "ext.infantedpedro@escolas.min-edu.pt",
            "INF_SITE": "http://www.ext-infantedpedro.com",
            "FREGUESIA": "Avenidas Novas"
        },
        {
            "type": "Escolas_Privadas_Pré-Escolar",
            "Longitude": -9.15641934150853,
            "Latitude": 38.7390779438386,
            "INF_NOME": "Jardim Infantil da Associação do Pessoal da Fundação Calouste Gulbenkian",
            "INF_MORADA": "Rua de Dom Luís de Noronha, 33",
            "INF_TELEFONE": "+351 217 823 566",
            "INF_EMAIL": "ji.apfcgulbenkian@escolas.min-edu.pt",
            "INF_SITE": null,
            "FREGUESIA": "Avenidas Novas"
        },
        {
            "type": "Escolas_Privadas_Pré-Escolar",
            "Longitude": -9.15617110629818,
            "Latitude": 38.7394134059345,
            "INF_NOME": "Externato \"Anita\"",
            "INF_MORADA": "Avenida Santos Dumont, 57 - 1º Dto\n\n",
            "INF_TELEFONE": "+351 217 935 829",
            "INF_EMAIL": "ext.anita@escolas.min-edu.pt",
            "INF_SITE": "http://www.externatoanita.com",
            "FREGUESIA": "Avenidas Novas"
        },
        {
            "type": "Escolas_Privadas_Pré-Escolar",
            "Longitude": -9.18068107956456,
            "Latitude": 38.7397797520283,
            "INF_NOME": "Escola Casa da Floresta",
            "INF_MORADA": "Sítio do Barcal, 9",
            "INF_TELEFONE": "+351 217743242",
            "INF_EMAIL": "cl.cfverdesanos@escolas.min-edu.pt",
            "INF_SITE": "https://www.escolacasadafloresta.pt/",
            "FREGUESIA": "São Domingos de Benfica"
        },
        {
            "type": "Escolas_Privadas_Pré-Escolar",
            "Longitude": -9.16520524642019,
            "Latitude": 38.7401157516913,
            "INF_NOME": "Colégio São Tomás - Sete Rios",
            "INF_MORADA": "Rua Professor Lima Basto, 133\n",
            "INF_TELEFONE": "+351 217 247 010",
            "INF_EMAIL": "cl.stomas@escolas.min-edu.pt",
            "INF_SITE": "https://colegiodestomas.com/",
            "FREGUESIA": "São Domingos de Benfica"
        },
        {
            "type": "Escolas_Privadas_Pré-Escolar",
            "Longitude": -9.19668748711501,
            "Latitude": 38.7424022203829,
            "INF_NOME": "Externato Infantil e Primário \"O Beiral\"",
            "INF_MORADA": "Travessa de Francisco Resende, 57",
            "INF_TELEFONE": "+351 217 783 359",
            "INF_EMAIL": "ext.obeiral@escolas.min-edu.pt",
            "INF_SITE": "https://escolabeiral.wixsite.com/",
            "FREGUESIA": "Benfica"
        },
        {
            "type": "Escolas_Privadas_Pré-Escolar",
            "Longitude": -9.11311241500583,
            "Latitude": 38.7448882851618,
            "INF_NOME": "Nuclisol Jean Piaget - Unidade De Desenvolvimento Integrado Bairro Do Condado",
            "INF_MORADA": "Rua Engenheiro Cunha Leal, Lote 544, 1º\n",
            "INF_TELEFONE": "+351 218 313 030",
            "INF_EMAIL": "njpiagetstamolivais@escolas.min-edu.pt",
            "INF_SITE": "https://www.nuclisol.org/pt/educacao-apoio-familia/condado/servicos/pre-escolar/",
            "FREGUESIA": "Marvila"
        },
        {
            "type": "Escolas_Privadas_Pré-Escolar",
            "Longitude": -9.18092789470152,
            "Latitude": 38.7453191205799,
            "INF_NOME": "Externato Fernão Mendes Pinto",
            "INF_MORADA": "Estrada de Benfica, 358",
            "INF_TELEFONE": "+351 217 780 188",
            "INF_EMAIL": "ext.fmendespinto@escolas.min-edu.pt",
            "INF_SITE": "http://educom.fct.unl.pt/~escalmad/fernpri.htm",
            "FREGUESIA": "São Domingos de Benfica"
        },
        {
            "type": "Escolas_Privadas_Pré-Escolar",
            "Longitude": -9.12082146782291,
            "Latitude": 38.7459551797785,
            "INF_NOME": "Nuclisol Jean Piaget - Udi Armador",
            "INF_MORADA": "Rua Bento Gonçalves\n",
            "INF_TELEFONE": "+351 218 597 575",
            "INF_EMAIL": "udi.armador@nuclisol.org",
            "INF_SITE": "https://www.nuclisol.org/pt/nuclisol/contactos/",
            "FREGUESIA": "Marvila"
        },
        {
            "type": "Escolas_Privadas_Pré-Escolar",
            "Longitude": -9.11354404870405,
            "Latitude": 38.7465985427204,
            "INF_NOME": "Jardim Infantil do Centro Social Paroq. S. Maximiliano Kolbe",
            "INF_MORADA": "Praça Dr. Fernando Amado, Lote 566 - Lj. C/D",
            "INF_TELEFONE": "+351 218 595 278",
            "INF_EMAIL": "ji.cpsmkolbe@escolas.min-edu.pt",
            "INF_SITE": "centrokolbe@net.novis.pt",
            "FREGUESIA": "Marvila"
        },
        {
            "type": "Escolas_Privadas_Pré-Escolar",
            "Longitude": -9.14257775749759,
            "Latitude": 38.7469154440483,
            "INF_NOME": "Infantário \"Nossa Sra. da Purificação\"",
            "INF_MORADA": "Praça Gonçalo Trancoso, 4",
            "INF_TELEFONE": "+351 217 969 727",
            "INF_EMAIL": "if.nsradapurificacao@escolas.min-edu.pt",
            "INF_SITE": "https://www.insp.pt/",
            "FREGUESIA": "Alvalade"
        },
        {
            "type": "Escolas_Privadas_Pré-Escolar",
            "Longitude": -9.16878078241061,
            "Latitude": 38.7468597230383,
            "INF_NOME": "Jardim de Infância \"Laranja e Meia\"",
            "INF_MORADA": "Rua das Laranjeiras, 17",
            "INF_TELEFONE": "+351 217 270 016",
            "INF_EMAIL": "ji.laranjaemeia@escolas.min-edu.pt",
            "INF_SITE": "http://www.laranjameia.com",
            "FREGUESIA": "São Domingos de Benfica"
        },
        {
            "type": "Escolas_Privadas_Pré-Escolar",
            "Longitude": -9.16535818841266,
            "Latitude": 38.747766262347,
            "INF_NOME": "Associação Infante de Sagres",
            "INF_MORADA": "Rua Azevedo Neves\n",
            "INF_TELEFONE": "+351 217 265 940",
            "INF_EMAIL": "aisagres@aisagres.pt",
            "INF_SITE": "https://www.aisagres.pt/devpress/",
            "FREGUESIA": "São Domingos de Benfica"
        },
        {
            "type": "Escolas_Privadas_Pré-Escolar",
            "Longitude": -9.18164424325018,
            "Latitude": 38.7477232013571,
            "INF_NOME": "Externato Marista de Lisboa",
            "INF_MORADA": "Rua Major Neutel de Abreu, 11",
            "INF_TELEFONE": "+351 217 712 030",
            "INF_EMAIL": "ext.maristalisboa@escolas.min-edu.pt",
            "INF_SITE": "http://www.ext.marista-lisboa.org",
            "FREGUESIA": "São Domingos de Benfica"
        },
        {
            "type": "Escolas_Privadas_Pré-Escolar",
            "Longitude": -9.18542141787861,
            "Latitude": 38.7480988736747,
            "INF_NOME": "Academia dos Miúdos",
            "INF_MORADA": "Rua Alfredo Guisado,  n.º 19, loja A",
            "INF_TELEFONE": "217740126",
            "INF_EMAIL": "geral@academiadosmiudos.pt",
            "INF_SITE": "http://www.academiadosmiudos.pt",
            "FREGUESIA": "São Domingos de Benfica"
        },
        {
            "type": "Escolas_Privadas_Pré-Escolar",
            "Longitude": -9.15259870883872,
            "Latitude": 38.7484730577893,
            "INF_NOME": "Jardim Infantil João Paulo II",
            "INF_MORADA": "Avenida das Forças Armadas (ao Colégio Universitário Pio XII)",
            "INF_TELEFONE": "+351 217 934 161",
            "INF_EMAIL": "ji.joaopauloiilisboa@escolas.min-edu.pt",
            "INF_SITE": "https://cajcrechejardimdeinfancia.pt/#sec-informacoes",
            "FREGUESIA": "Alvalade"
        },
        {
            "type": "Escolas_Privadas_Pré-Escolar",
            "Longitude": -9.1681649736518,
            "Latitude": 38.7490694555692,
            "INF_NOME": "Colégio Pequenos Índios",
            "INF_MORADA": "Rua Manuel da Fonseca, 5 - B/C",
            "INF_TELEFONE": "+351 210 995 474",
            "INF_EMAIL": "info@pequenosindios.pt",
            "INF_SITE": "http://www.pequenosindios.pt ",
            "FREGUESIA": "São Domingos de Benfica"
        },
        {
            "type": "Escolas_Privadas_Pré-Escolar",
            "Longitude": -9.18659750945564,
            "Latitude": 38.7490214503643,
            "INF_NOME": "Jardim De Infância Do Centro Social E Paroquial Do Calhariz De Benfica",
            "INF_MORADA": "Rua Mariano Pina",
            "INF_TELEFONE": "+351 217 742 783",
            "INF_EMAIL": "csp.calharizbenfica@escolas.min-edu.pt",
            "INF_SITE": null,
            "FREGUESIA": "São Domingos de Benfica"
        },
        {
            "type": "Escolas_Privadas_Pré-Escolar",
            "Longitude": -9.10339156854669,
            "Latitude": 38.7502302543047,
            "INF_NOME": "Associação da Creche Ester Janz",
            "INF_MORADA": "Avenida Infante D. Henrique, 286",
            "INF_TELEFONE": "+351 218 311 200",
            "INF_EMAIL": "ass.creesterjanz@escolas.min-edu.pt",
            "INF_SITE": "http://esterjanz.no.sapo.pt/",
            "FREGUESIA": "Marvila"
        },
        {
            "type": "Escolas_Privadas_Pré-Escolar",
            "Longitude": -9.19382877244253,
            "Latitude": 38.7496614594568,
            "INF_NOME": "Jardim Infantil \"Pedrita\" - Associação de Pais e Técnicos",
            "INF_MORADA": "Estrada de Benfica, 533",
            "INF_TELEFONE": "+351 217 154 701",
            "INF_EMAIL": "ji.pedrita@escolas.min-edu.pt",
            "INF_SITE": "https://www.pedrita.pt/",
            "FREGUESIA": "Benfica"
        },
        {
            "type": "Escolas_Privadas_Pré-Escolar",
            "Longitude": -9.20342482264469,
            "Latitude": 38.7498351200921,
            "INF_NOME": "Externato \"Grão Vasco\"",
            "INF_MORADA": "Avenida Grão Vasco, 40\n",
            "INF_TELEFONE": "+351 217 603 207",
            "INF_EMAIL": "ext.graovasco@escolas.min-edu.pt",
            "INF_SITE": "http://www.graovasco.pt",
            "FREGUESIA": "Benfica"
        },
        {
            "type": "Escolas_Privadas_Pré-Escolar",
            "Longitude": -9.20359796746516,
            "Latitude": 38.7506442260604,
            "INF_NOME": "Externato \"São Cristóvão\"",
            "INF_MORADA": "Rua de Emília das Neves, 7 e 7 A\n",
            "INF_TELEFONE": "+351 217 606 527",
            "INF_EMAIL": "ext.saocristovao@escolas.min-edu.pt",
            "INF_SITE": "https://saocristovao.com.pt/",
            "FREGUESIA": "Benfica"
        },
        {
            "type": "Escolas_Privadas_Pré-Escolar",
            "Longitude": -9.13534658812129,
            "Latitude": 38.7515966158655,
            "INF_NOME": "Queen Elisabeth's School",
            "INF_MORADA": "Rua Filipe Magalhães, 1",
            "INF_TELEFONE": "+351 218 410 140",
            "INF_EMAIL": "qelisabethsschool@escolas.min-edu.pt",
            "INF_SITE": "http://www.qes.pt",
            "FREGUESIA": "Alvalade"
        },
        {
            "type": "Escolas_Privadas_Pré-Escolar",
            "Longitude": -9.2024867350494,
            "Latitude": 38.7511538941156,
            "INF_NOME": "Centro Social Paroquial Nossa Senhora do Amparo",
            "INF_MORADA": "R. Ernesto da Silva, 13 - D",
            "INF_TELEFONE": "+351 217 600 362",
            "INF_EMAIL": "csp.nsenhoraamparo@escolas.min-edu.pt",
            "INF_SITE": "https://csp-benfica.pt/",
            "FREGUESIA": "Benfica"
        },
        {
            "type": "Escolas_Privadas_Pré-Escolar",
            "Longitude": -9.10317998400444,
            "Latitude": 38.7520727882507,
            "INF_NOME": "IES Cesário Verde International School Portugal",
            "INF_MORADA": "Avenida Infante Dom Henrique, Lote 309",
            "INF_TELEFONE": "+351 219 457 590",
            "INF_EMAIL": "geral@cesarioverde.com",
            "INF_SITE": "https://cesarioverde.com/",
            "FREGUESIA": "Marvila"
        },
        {
            "type": "Escolas_Privadas_Pré-Escolar",
            "Longitude": -9.13031278956303,
            "Latitude": 38.7523921736606,
            "INF_NOME": "Astória International School ",
            "INF_MORADA": "Avenida Almirante Gago Coutinho, 73, 86 e 88",
            "INF_TELEFONE": "+351 211 583 551",
            "INF_EMAIL": "info@colegioeuropeu-astoria.com",
            "INF_SITE": "http://www.colegioeuropeu-astoria.com/",
            "FREGUESIA": "Alvalade"
        },
        {
            "type": "Escolas_Privadas_Pré-Escolar",
            "Longitude": -9.13097601508296,
            "Latitude": 38.7525682004221,
            "INF_NOME": "Colégio Saint Daniel Brottier",
            "INF_MORADA": "Avenida Almirante Gago Coutinho, 82",
            "INF_TELEFONE": "+351 218 409 027",
            "INF_EMAIL": "geral@csdbrottier.pt",
            "INF_SITE": "https://csdbrottier.pt/",
            "FREGUESIA": "Alvalade"
        },
        {
            "type": "Escolas_Privadas_Pré-Escolar",
            "Longitude": -9.20517374583468,
            "Latitude": 38.7521700858606,
            "INF_NOME": "Jardim Escola Carrocel",
            "INF_MORADA": "Estrada de Benfica, 682 - D",
            "INF_TELEFONE": "+351 217 603 958 ",
            "INF_EMAIL": "je.ocarrocel@escolas.min-edu.pt",
            "INF_SITE": "https://www.carrocel.pt/",
            "FREGUESIA": "Benfica"
        },
        {
            "type": "Escolas_Privadas_Pré-Escolar",
            "Longitude": -9.15364624965256,
            "Latitude": 38.7527039087666,
            "INF_NOME": "Colégio Moderno",
            "INF_MORADA": "Rua Dr. João Soares, 19 e 22",
            "INF_TELEFONE": "+351 217 991 840",
            "INF_EMAIL": "cl.moderno@escolas.min-edu.pt",
            "INF_SITE": "http://www.colegiomoderno.pt",
            "FREGUESIA": "Alvalade"
        },
        {
            "type": "Escolas_Privadas_Pré-Escolar",
            "Longitude": -9.15405434677923,
            "Latitude": 38.753087672088,
            "INF_NOME": "Jardim Infantil \"Pestalozzi\"",
            "INF_MORADA": "Rua Dr. João Soares, 20 e 20B\n",
            "INF_TELEFONE": "+351 217 971 843",
            "INF_EMAIL": "ji.pestalozzi@escolas.min-edu.pt",
            "INF_SITE": "https://www.jardiminfantilpestalozzi.pt/",
            "FREGUESIA": "Alvalade"
        },
        {
            "type": "Escolas_Privadas_Pré-Escolar",
            "Longitude": -9.13255885317991,
            "Latitude": 38.7542465708961,
            "INF_NOME": "Jardim de Infância da Fundação Adolfo Vieira de Brito",
            "INF_MORADA": "Avenida Dom Rodrigo da Cunha, 5 R/ch\n",
            "INF_TELEFONE": "+351 218 435 020",
            "INF_EMAIL": "fadolfovieirabrito@escolas.min-edu.pt",
            "INF_SITE": "https://favb.pt",
            "FREGUESIA": "Alvalade"
        },
        {
            "type": "Escolas_Privadas_Pré-Escolar",
            "Longitude": -9.15006094992892,
            "Latitude": 38.7543524631598,
            "INF_NOME": "Jardim de Infância Centro Social Paroquial do Campo Grande",
            "INF_MORADA": "Campo Grande, 244\n",
            "INF_TELEFONE": "+351 217 812 480",
            "INF_EMAIL": "ji.cspcampogrande@escolas.min-edu.pt",
            "INF_SITE": "https://igrejacampogrande.pt/cspcg/area-da-infancia/jardim-de-infancia/",
            "FREGUESIA": "Alvalade"
        },
        {
            "type": "Escolas_Privadas_Pré-Escolar",
            "Longitude": -9.13758000513814,
            "Latitude": 38.7552129382918,
            "INF_NOME": "Centro Social Paroquial S. João de Brito",
            "INF_MORADA": "Largo Frei Heitor Pinto, 8",
            "INF_TELEFONE": "+351 218 405 731",
            "INF_EMAIL": "geral@cpsjbrito.com",
            "INF_SITE": "https://paroquiasjbrito.pt/centro-paroquial-de-sao-joao-de-brito/",
            "FREGUESIA": "Alvalade"
        },
        {
            "type": "Escolas_Privadas_Pré-Escolar",
            "Longitude": -9.0947749789116,
            "Latitude": 38.7561067033113,
            "INF_NOME": "Tutor T",
            "INF_MORADA": "Rua das Musas, 1, Edifício Tutor T Parque das Nações",
            "INF_TELEFONE": "+351 218 933 080",
            "INF_EMAIL": "tutortime@escolas.min-edu.pt",
            "INF_SITE": "https://www.tutort.pt/",
            "FREGUESIA": "Parque das Nações"
        },
        {
            "type": "Escolas_Privadas_Pré-Escolar",
            "Longitude": -9.12614486333781,
            "Latitude": 38.7558990122078,
            "INF_NOME": "Colégio Valsassina",
            "INF_MORADA": "Avenida Avelino Teixeira da Mota - Qtª das Teresinhas\n",
            "INF_TELEFONE": "+351 218 310 900",
            "INF_EMAIL": "cl.valsassina@escolas.min-edu.pt",
            "INF_SITE": "http://www.cvalsassina.pt",
            "FREGUESIA": "Marvila"
        },
        {
            "type": "Escolas_Privadas_Pré-Escolar",
            "Longitude": -9.13646179320678,
            "Latitude": 38.7558877162823,
            "INF_NOME": "Jardim Escola João de Deus Lisboa/Alvalade",
            "INF_MORADA": "Rua Conde de Arnoso, 3",
            "INF_TELEFONE": "+351 218 491 654",
            "INF_EMAIL": "jdeus.alvalade@iol.pt",
            "INF_SITE": "http://www.joaodeus.com/",
            "FREGUESIA": "Alvalade"
        },
        {
            "type": "Escolas_Privadas_Pré-Escolar",
            "Longitude": -9.20520539528866,
            "Latitude": 38.7558179128935,
            "INF_NOME": "Externato das Pedralvas",
            "INF_MORADA": "Rua Maria Lamas, 1 - Benfica\n",
            "INF_TELEFONE": "+351 217 620 620",
            "INF_EMAIL": "ext.pedralvas@escolas.min-edu.pt",
            "INF_SITE": "http://www.pedralvinhas.no.sapo.pt",
            "FREGUESIA": "Benfica"
        },
        {
            "type": "Escolas_Privadas_Pré-Escolar",
            "Longitude": -9.1636587755358,
            "Latitude": 38.7581367327522,
            "INF_NOME": "Escola Alemã de Lisboa",
            "INF_MORADA": "Largo Willy Brandt",
            "INF_TELEFONE": "+351 21 751 02 60",
            "INF_EMAIL": "direccao@dslissabon.com",
            "INF_SITE": "http://www.ds.lissabon.com",
            "FREGUESIA": "Lumiar"
        },
        {
            "type": "Escolas_Privadas_Pré-Escolar",
            "Longitude": -9.12172635561111,
            "Latitude": 38.7585268864678,
            "INF_NOME": "Colégio Paço de São Francisco",
            "INF_MORADA": "Rua José Luís Monteiro, Lote 245, Bloco B1",
            "INF_TELEFONE": "218943063",
            "INF_EMAIL": "pacodesaofrancisco.ensino@gmail.com",
            "INF_SITE": "https://www.pacodesaofrancisco.pt/",
            "FREGUESIA": "Marvila"
        },
        {
            "type": "Escolas_Privadas_Pré-Escolar",
            "Longitude": -9.1434944886478,
            "Latitude": 38.7594080429852,
            "INF_NOME": "Jardim Infantil do Laboratório Nacional de Engenharia Civil",
            "INF_MORADA": "Avenida do Brasil, 101",
            "INF_TELEFONE": "+351 218 443 000",
            "INF_EMAIL": "ji.lnengenhariacivil@escolas.min-edu.pt",
            "INF_SITE": null,
            "FREGUESIA": "Alvalade"
        },
        {
            "type": "Escolas_Privadas_Pré-Escolar",
            "Longitude": -9.13046070669994,
            "Latitude": 38.7597051970005,
            "INF_NOME": "Colégio N' Avózinha",
            "INF_MORADA": "Avenida Almirante Gago Coutinho, 141\n",
            "INF_TELEFONE": "+351 210 963 956",
            "INF_EMAIL": "cl.navozinha@escolas.min-edu.pt ",
            "INF_SITE": "http://www.naavozinha.com/",
            "FREGUESIA": "Alvalade"
        },
        {
            "type": "Escolas_Privadas_Pré-Escolar",
            "Longitude": -9.1228802238312,
            "Latitude": 38.7599787384255,
            "INF_NOME": "ATM - Associação Tempo de Mudar para o Desenvolvimento do Bairro dos Lóios",
            "INF_MORADA": "Rua Pedro José Pezerat, Bloco B (edifício Azul), Marvila",
            "INF_TELEFONE": "918596785",
            "INF_EMAIL": "associacao@tempodemudar.pt",
            "INF_SITE": "atm.org.pt",
            "FREGUESIA": "Marvila"
        },
        {
            "type": "Escolas_Privadas_Pré-Escolar",
            "Longitude": -9.15168687080768,
            "Latitude": 38.7597804667984,
            "INF_NOME": "Externato Liceal das Casas de S. Vicente de Paulo",
            "INF_MORADA": "Avenida Marechal Craveiro Lopes, 10",
            "INF_TELEFONE": "+351 217 521 430",
            "INF_EMAIL": "ext.lcsvicentepaulo@escolas.min-edu.pt",
            "INF_SITE": "https://www.externatoasvp.pt/",
            "FREGUESIA": "Alvalade"
        },
        {
            "type": "Escolas_Privadas_Pré-Escolar",
            "Longitude": -9.15449337055127,
            "Latitude": 38.7604124072513,
            "INF_NOME": "Jardim Infantil da Obra Social \"Paulo VI\"",
            "INF_MORADA": "Avenida Marechal Craveiro Lopes, 3",
            "INF_TELEFONE": "+351 217 575 063",
            "INF_EMAIL": "ji.paulovi@escolas.min-edu.pt",
            "INF_SITE": "http://www.obrasocialpaulovi.pt/",
            "FREGUESIA": "Lumiar"
        },
        {
            "type": "Escolas_Privadas_Pré-Escolar",
            "Longitude": -9.12945181697819,
            "Latitude": 38.7607240144421,
            "INF_NOME": "Colégio Piloto Diese",
            "INF_MORADA": "Avenida Almirante Gago Coutinho, 162-162A;",
            "INF_TELEFONE": "217970313",
            "INF_EMAIL": "ji.diese@escolas.min-edu.pt",
            "INF_SITE": "http://www.pilotodiese.web.pt",
            "FREGUESIA": "Alvalade"
        },
        {
            "type": "Escolas_Privadas_Pré-Escolar",
            "Longitude": -9.11356836374548,
            "Latitude": 38.7614759544764,
            "INF_NOME": "Jardim Infantil Panioli - O.N.Promoção Pastoral dos Ciganos",
            "INF_MORADA": "Rua Cidade de Bolama, 5 - 2º Esq.",
            "INF_TELEFONE": "+351 218 535 048",
            "INF_EMAIL": "geral.sdl@sapo.pt",
            "INF_SITE": null,
            "FREGUESIA": "Olivais"
        },
        {
            "type": "Escolas_Privadas_Pré-Escolar",
            "Longitude": -9.18570707381259,
            "Latitude": 38.7609220449252,
            "INF_NOME": "A Casa Amarela",
            "INF_MORADA": "Rua General Henrique de Carvalho, 12-12A;",
            "INF_TELEFONE": "217160331 ",
            "INF_EMAIL": "geral.acasaamarela@hotmail.com",
            "INF_SITE": "www.acasaamarela.wordpress.com",
            "FREGUESIA": "Carnide"
        },
        {
            "type": "Escolas_Privadas_Pré-Escolar",
            "Longitude": -9.18181292339607,
            "Latitude": 38.762818068524,
            "INF_NOME": "Externato da Luz",
            "INF_MORADA": "Largo da Luz, 11",
            "INF_TELEFONE": "+351 217 140 769",
            "INF_EMAIL": "ext.luz@escolas.min-edu.pt",
            "INF_SITE": "https://www.externatodaluz.com/",
            "FREGUESIA": "Carnide"
        },
        {
            "type": "Escolas_Privadas_Pré-Escolar",
            "Longitude": -9.11400322580118,
            "Latitude": 38.763454121335,
            "INF_NOME": "Jardim de Infância da Segurança Social dos Olivais Sul - Fundação Aga Khan",
            "INF_MORADA": "Rua Cidade de Moçâmedes, 61",
            "INF_TELEFONE": "218533539",
            "INF_EMAIL": "akfportugal@akdn.org",
            "INF_SITE": "http://www.centro.olivais.pt/",
            "FREGUESIA": "Olivais"
        },
        {
            "type": "Escolas_Privadas_Pré-Escolar",
            "Longitude": -9.16325327322758,
            "Latitude": 38.7634230814459,
            "INF_NOME": "Chuva de Papel",
            "INF_MORADA": "Rua José Travassos, 33A e 31C  Lumiar",
            "INF_TELEFONE": "+351 217 550 483",
            "INF_EMAIL": "geral.chuvadepapel@gmail.com",
            "INF_SITE": null,
            "FREGUESIA": "Lumiar"
        },
        {
            "type": "Escolas_Privadas_Pré-Escolar",
            "Longitude": -9.15686441366653,
            "Latitude": 38.7643107116527,
            "INF_NOME": "Externato \"O Poeta\"",
            "INF_MORADA": "Alameda das Linhas de Torres, 82 a 86",
            "INF_TELEFONE": "+351 217 591 275",
            "INF_EMAIL": "ext.opoeta@escolas.min-edu.pt",
            "INF_SITE": "https://www.externatopoeta.pt/",
            "FREGUESIA": "Lumiar"
        },
        {
            "type": "Escolas_Privadas_Pré-Escolar",
            "Longitude": -9.11300589072708,
            "Latitude": 38.7664317229174,
            "INF_NOME": "Jardim Escola \"O Bosque\"",
            "INF_MORADA": "Rua Cidade de Benguela, 257",
            "INF_TELEFONE": "+351 218 534 953",
            "INF_EMAIL": "je.obosque@escolas.min-edu.pt",
            "INF_SITE": "https://colegiobosque.pt/",
            "FREGUESIA": "Olivais"
        },
        {
            "type": "Escolas_Privadas_Pré-Escolar",
            "Longitude": -9.12277799692036,
            "Latitude": 38.7666629655138,
            "INF_NOME": "Jardim-Escola João de Deus - Olivais",
            "INF_MORADA": "Rua Cidade Vila Cabral, 15",
            "INF_TELEFONE": "210998860",
            "INF_EMAIL": "olivais@escolasjoaodeus.pt",
            "INF_SITE": "http://www.joaodeus.com/",
            "FREGUESIA": "Olivais"
        },
        {
            "type": "Escolas_Privadas_Pré-Escolar",
            "Longitude": -9.16366685406106,
            "Latitude": 38.7671543203443,
            "INF_NOME": "Externato PimPamPum",
            "INF_MORADA": "Praça Rainha Dona Filipa, 1 - R/C",
            "INF_TELEFONE": "+351 217 593 659",
            "INF_EMAIL": "ext.pimpampum@escolas.min-edu.pt",
            "INF_SITE": "http://www.externatopimpampum.com/",
            "FREGUESIA": "Lumiar"
        },
        {
            "type": "Escolas_Privadas_Pré-Escolar",
            "Longitude": -9.15055384155778,
            "Latitude": 38.7674905544068,
            "INF_NOME": "Colégio de São Tomás - Quinta das Conchas",
            "INF_MORADA": "Av. Maria Vieira da Silva, 39 - Quinta das Conchas",
            "INF_TELEFONE": "+351 210 437 000",
            "INF_EMAIL": "cl.stomaslumiar@escolas.min-edu.pt",
            "INF_SITE": "http://www.colegiodestomas.com",
            "FREGUESIA": "Lumiar"
        },
        {
            "type": "Escolas_Privadas_Pré-Escolar",
            "Longitude": -9.16584502635399,
            "Latitude": 38.7679817924958,
            "INF_NOME": "Colégio Planalto",
            "INF_MORADA": "Rua Armindo Rodrigues, 28\n",
            "INF_TELEFONE": "217541530",
            "INF_EMAIL": "ext.planalto@escolas.min-edu.pt",
            "INF_SITE": "http://www.colegioplanalto.pt/",
            "FREGUESIA": "Lumiar"
        },
        {
            "type": "Escolas_Privadas_Pré-Escolar",
            "Longitude": -9.10656447505248,
            "Latitude": 38.7691342456766,
            "INF_NOME": "Jardim Infantil Olivais (Fundação D. Pedro IV)",
            "INF_MORADA": "Praça da Viscondessa dos Olivais, 42",
            "INF_TELEFONE": "+351 218 515 901",
            "INF_EMAIL": "ji.olivaislisboa@escolas.min-edu.pt",
            "INF_SITE": "http://www.fundacaodpedroiv.org",
            "FREGUESIA": "Olivais"
        },
        {
            "type": "Escolas_Privadas_Pré-Escolar",
            "Longitude": -9.11495609570012,
            "Latitude": 38.7714968219621,
            "INF_NOME": "Jardim Infantil do Centro Paroquial Stº Eugénio",
            "INF_MORADA": "Rua 26, 51",
            "INF_TELEFONE": "+351 218 510 864",
            "INF_EMAIL": "ji.cpsteugenio@escolas.min-edu.pt",
            "INF_SITE": null,
            "FREGUESIA": "Olivais"
        },
        {
            "type": "Escolas_Privadas_Pré-Escolar",
            "Longitude": -9.15592778385506,
            "Latitude": 38.772796291371,
            "INF_NOME": "Colégio de São João de Brito",
            "INF_MORADA": "Estrada da Torre, 28",
            "INF_TELEFONE": "+351 217 519 000",
            "INF_EMAIL": "cl.sjoaobrito@escolas.min-edu.pt",
            "INF_SITE": "http://www.csjb.pt",
            "FREGUESIA": "Lumiar"
        },
        {
            "type": "Escolas_Privadas_Pré-Escolar",
            "Longitude": -9.17179877288871,
            "Latitude": 38.7733065582374,
            "INF_NOME": "Real Colégio de Portugal",
            "INF_MORADA": "Rua Direita ao Paço do Lumiar, 9\n",
            "INF_TELEFONE": "+351 217 571 957",
            "INF_EMAIL": "realclportugal@escolas.min-edu.pt",
            "INF_SITE": "http://www.realcolegio.pt/",
            "FREGUESIA": "Lumiar"
        },
        {
            "type": "Escolas_Privadas_Pré-Escolar",
            "Longitude": -9.17351183193399,
            "Latitude": 38.7734462326611,
            "INF_NOME": "Colégio Manuel Bernardes",
            "INF_MORADA": "Quinta dos Azulejos, Paço do Lumiar",
            "INF_TELEFONE": "+351 217 570 501",
            "INF_EMAIL": "cl.manuelbernardes@escolas.min-edu.pt",
            "INF_SITE": "http://www.cmb.pt",
            "FREGUESIA": "Lumiar"
        },
        {
            "type": "Escolas_Privadas_Pré-Escolar",
            "Longitude": -9.10765138490686,
            "Latitude": 38.7752489775306,
            "INF_NOME": "Lua Crescente",
            "INF_MORADA": "Estrada da Circunvalação, Lote 2",
            "INF_TELEFONE": "+351 218 520 043",
            "INF_EMAIL": "geral@luacrescente.pt",
            "INF_SITE": "https://www.luacrescente.pt/",
            "FREGUESIA": "Olivais"
        },
        {
            "type": "Escolas_Privadas_Pré-Escolar",
            "Longitude": -9.16232837154358,
            "Latitude": 38.7749275274334,
            "INF_NOME": "Jardim de Infância da Associação Popular do Lumiar",
            "INF_MORADA": "Rua do Lumiar, 16",
            "INF_TELEFONE": "+351 217 580 137",
            "INF_EMAIL": "ass.popularlumiar@escolas.min-edu.pt",
            "INF_SITE": "https://www.ass-popularlumiar.pt/",
            "FREGUESIA": "Lumiar"
        },
        {
            "type": "Escolas_Privadas_Pré-Escolar",
            "Longitude": -9.12650746848228,
            "Latitude": 38.7782418083187,
            "INF_NOME": "Externato \"Marcelino Champagnat\"",
            "INF_MORADA": "Azinhaga da Vila Formosa - Aeroporto -",
            "INF_TELEFONE": "+351 218 540 190",
            "INF_EMAIL": "ext.mchampagnat@escolas.min-edu.pt",
            "INF_SITE": "https://www.externatochampagnat.pt/",
            "FREGUESIA": "Olivais"
        },
        {
            "type": "Escolas_Privadas_Pré-Escolar",
            "Longitude": -9.11477639750872,
            "Latitude": 38.7798563979376,
            "INF_NOME": "Externato \"S. Miguel Arcanjo\"",
            "INF_MORADA": "Avenida Dr. Alfredo Bensaúde - Olivais Norte\n\n",
            "INF_TELEFONE": "+351 218 517 834",
            "INF_EMAIL": "ext.smiguelarcanjo@escolas.min-edu.pt",
            "INF_SITE": "http://www.esma.pt/",
            "FREGUESIA": "Olivais"
        },
        {
            "type": "Escolas_Privadas_Pré-Escolar",
            "Longitude": -9.11691344968593,
            "Latitude": 38.7811124525543,
            "INF_NOME": "Jardim de Infância Fundação Obra Nª Sra. Purificação",
            "INF_MORADA": "Estrada da Circunvalação, Lote C 05;",
            "INF_TELEFONE": "219434433",
            "INF_EMAIL": "ji.fonsrapurificacao@escolas.min-edu.pt",
            "INF_SITE": "https://www.fonsp.pt/pt",
            "FREGUESIA": "Olivais"
        },
        {
            "type": "Escolas_Privadas_Pré-Escolar",
            "Longitude": -9.15807864323047,
            "Latitude": 38.7823455024189,
            "INF_NOME": "Creche na Quinta",
            "INF_MORADA": "Estrada de São Bartolomeu, 28-30;",
            "INF_TELEFONE": "217570862",
            "INF_EMAIL": "geral@crechenaquinta.com",
            "INF_SITE": "https://www.crechenaquinta.com/",
            "FREGUESIA": "Santa Clara"
        },
        {
            "type": "Escolas_Privadas_Pré-Escolar",
            "Longitude": -9.15925396311878,
            "Latitude": 38.7824203233578,
            "INF_NOME": "Academia de Música de Santa Cecília",
            "INF_MORADA": "Largo do Ministro, 9 - Ameixoeira",
            "INF_TELEFONE": "+351 217 594 031",
            "INF_EMAIL": "acm.stacecilialisboa@escolas.min-edu.pt; ",
            "INF_SITE": "http://www.ac-musica-st-cecilia.rcts.pt",
            "FREGUESIA": "Santa Clara"
        },
        {
            "type": "Escolas_Privadas_Pré-Escolar",
            "Longitude": -9.1438872344346,
            "Latitude": 38.7833864856118,
            "INF_NOME": "Jardim de Infância do Centro de Assistência Socia Infantil da Charneca do Lumiar",
            "INF_MORADA": "Largo dos Defensores da República, 16",
            "INF_TELEFONE": "217590385",
            "INF_EMAIL": "ct.ainfantilcharneca@escolas.min-edu.pt",
            "INF_SITE": null,
            "FREGUESIA": "Santa Clara"
        },
        {
            "type": "Escolas_Privadas_Pré-Escolar",
            "Longitude": -9.1438872344346,
            "Latitude": 38.7833864856118,
            "INF_NOME": "Jardim De Infância Do Centro Social Paroquial Da Charneca",
            "INF_MORADA": "Estrada Militar, 1 - Galinheiras\n",
            "INF_TELEFONE": "+351 217 583 591",
            "INF_EMAIL": "cspcgalinheiras@gmail.com",
            "INF_SITE": "https://www.facebook.com/cspcgSSCC",
            "FREGUESIA": "Santa Clara"
        },
        {
            "type": "Escolas_Privadas_Pré-Escolar",
            "Longitude": -9.0961322576451,
            "Latitude": 38.7859954831724,
            "INF_NOME": "Saídos da Casca",
            "INF_MORADA": "Passeio dos Heróis do Mar, 18-18A;",
            "INF_TELEFONE": "218945028 ",
            "INF_EMAIL": "oriente@saidosdacasca.pt",
            "INF_SITE": "http://www.saidosdacasca.pt/",
            "FREGUESIA": "Parque das Nações"
        },
        {
            "type": "Escolas_Privadas_Pré-Escolar",
            "Longitude": -9.1573749740019,
            "Latitude": 38.7899241987171,
            "INF_NOME": "Jardim Infantil Majari-Secretariado Diocesano de Lisboa da Obra Nacional Pastoral dos Ciganos",
            "INF_MORADA": "Rua Fernanda Alves, Lote 6B, 7A e 7B",
            "INF_TELEFONE": "+351 217 551 838",
            "INF_EMAIL": "ji.masari@escolas.min-edu.pt",
            "INF_SITE": null,
            "FREGUESIA": "Santa Clara"
        },
        {
            "type": "Escolas_Privadas_Pré-Escolar",
            "Longitude": -9.15013849899421,
            "Latitude": 38.7922585534402,
            "INF_NOME": "Nuclisol Jean Piaget - Udi Galinheiras",
            "INF_MORADA": "Largo das Galinheiras, 9",
            "INF_TELEFONE": "+351 217 572 422",
            "INF_EMAIL": "udi.galinheiras@nuclisol.org",
            "INF_SITE": "https://www.nuclisol.org/pt/educacao-apoio-familia/galinheiras/servicos/pre-escolar/",
            "FREGUESIA": "Santa Clara"
        },
        {
            "type": "Escolas_Privadas_Pré-Escolar",
            "Longitude": -9.0970281754942,
            "Latitude": 38.7932749674204,
            "INF_NOME": "Colégio Pedro Arrupe",
            "INF_MORADA": "Passeio dos Heróis do Mar, 100",
            "INF_TELEFONE": "211572640",
            "INF_EMAIL": "cl.pedroarrupe@escolas.min-edu.pt",
            "INF_SITE": "http://www.colegiopedroarrupe.pt/",
            "FREGUESIA": "Parque das Nações"
        },
        {
            "type": "Escolas_Privadas_Pré-Escolar",
            "Longitude": -9.15014661360766,
            "Latitude": 38.7951201285397,
            "INF_NOME": "Jardim de Infância Mimá",
            "INF_MORADA": "Rua Teresa de Saldanha, DT",
            "INF_TELEFONE": "+351 217 581 232",
            "INF_EMAIL": "ext.mima@escolas.min-edu.pt",
            "INF_SITE": "http://www.mima-externato.com/mima/index.htm; https://pt-pt.facebook.com/mima.externato",
            "FREGUESIA": "Santa Clara"
        },
        {
            "type": "Escolas_Privadas_Pré-Escolar",
            "Longitude": -9.09451022953127,
            "Latitude": 38.7608443040352,
            "INF_NOME": "Colégio Cantinho das Alfazemas",
            "INF_MORADA": "Rua Pedro e Inês, 2.22",
            "INF_TELEFONE": "215900211",
            "INF_EMAIL": "geral@colegiocantinhodasalfazemas.com",
            "INF_SITE": "https://colegiocantinhodasalfazemas.com/",
            "FREGUESIA": "Parque das Nações"
        },
        {
            "type": "Escolas_Privadas_Pré-Escolar",
            "Longitude": -9.13494587225849,
            "Latitude": 38.7421074613708,
            "INF_NOME": "Externato Infantil \"A Candeia Encantada\"",
            "INF_MORADA": "Avenida João XXI, 5-5E",
            "INF_TELEFONE": "218498851",
            "INF_EMAIL": "ext.acandeia@escolas.min-edu.pt",
            "INF_SITE": "https://www.candeiaencantada.pt/",
            "FREGUESIA": "Areeiro"
        },
        {
            "type": "Escolas_Privadas_Pré-Escolar",
            "Longitude": -9.16178019603209,
            "Latitude": 38.7384197551422,
            "INF_NOME": "PaRK International School - Praça de Espanha",
            "INF_MORADA": "Avenida Columbano Bordalo Pinheiro 52, R/C",
            "INF_TELEFONE": "215855000",
            "INF_EMAIL": "all@park-is.com",
            "INF_SITE": "http://www.park-is.com",
            "FREGUESIA": "São Domingos de Benfica"
        },
        {
            "type": "Escolas_Privadas_Pré-Escolar",
            "Longitude": -9.1778534183356,
            "Latitude": 38.7479519161965,
            "INF_NOME": "Jardim de Infância da APROS - Associação de Educação e Promoção Social",
            "INF_MORADA": "Rua Dr. João Chagas, 3",
            "INF_TELEFONE": "213952480",
            "INF_EMAIL": "apros@escolas.min-edu.pt",
            "INF_SITE": "https://apros.pt/wp/contactos/",
            "FREGUESIA": "São Domingos de Benfica"
        },
        {
            "type": "Escolas_Privadas_Pré-Escolar",
            "Longitude": -9.17270927267682,
            "Latitude": 38.7418850487398,
            "INF_NOME": "Jardim de Infância do Centro Paroquial São Domingos de Benfica",
            "INF_MORADA": "Rua Raul Carapinha, 15",
            "INF_TELEFONE": "+351 217 221 353",
            "INF_EMAIL": "direccao@sdomingos.net",
            "INF_SITE": "https://www.paroquiasaodomingosdebenfica.pt/centro-social/colegio-de-s-domingos/jardim-de-infancia:222",
            "FREGUESIA": "São Domingos de Benfica"
        },
        {
            "type": "Escolas_Privadas_Pré-Escolar",
            "Longitude": -9.12982729412164,
            "Latitude": 38.7438625771603,
            "INF_NOME": "Jardim de Infância do Chaborrilho-Sec. Diocesano de Lisboa da Obra Nac. da Pastoral dos Ciganos",
            "INF_MORADA": "Rua Sarmento de Beires, 70 - 98",
            "INF_TELEFONE": "218408091",
            "INF_EMAIL": "geral.sdl@sapo.pt",
            "INF_SITE": null,
            "FREGUESIA": "Areeiro"
        },
        {
            "type": "Escolas_Privadas_Pré-Escolar",
            "Longitude": -9.21259291317946,
            "Latitude": 38.699617185294,
            "INF_NOME": "L'École Trilingue",
            "INF_MORADA": "Avenida do Restelo 21",
            "INF_TELEFONE": "+351 910 335 102",
            "INF_EMAIL": "info@lecoletrilingue.com",
            "INF_SITE": "http://lecoletrilingue.com",
            "FREGUESIA": "Belém"
        },
        {
            "type": "Escolas_Privadas_Pré-Escolar",
            "Longitude": -9.16386490235357,
            "Latitude": 38.7294247035843,
            "INF_NOME": "Montessori bright Academy",
            "INF_MORADA": "Rua Soares dos Reis, 9",
            "INF_TELEFONE": "+351 960198 485",
            "INF_EMAIL": "fabiennemikou@gmail.com",
            "INF_SITE": "https://mbalisbon.com/",
            "FREGUESIA": "Campolide"
        },
        {
            "type": "Escolas_Privadas_Pré-Escolar",
            "Longitude": -9.09598792522106,
            "Latitude": 38.7793863483779,
            "INF_NOME": "Casa das Abelhinhas",
            "INF_MORADA": "Alameda dos Oceanos, nº 97 - Parque das Nações",
            "INF_TELEFONE": "218982060",
            "INF_EMAIL": "colmeiadasabelhinhas@escolas.min-edu.pt;",
            "INF_SITE": "http://www.casadasabelhinhas.pt",
            "FREGUESIA": "Parque das Nações"
        },
        {
            "type": "Escolas_Privadas_Pré-Escolar",
            "Longitude": -9.1806586657058,
            "Latitude": 38.7451510905573,
            "INF_NOME": "CEBE - Cooperativa de ensino de Benfica",
            "INF_MORADA": "Estrada de Benfica, 356-356A",
            "INF_TELEFONE": "217782120",
            "INF_EMAIL": "cebe@escolas.min-edu.pt",
            "INF_SITE": "http://www.cebe.pt",
            "FREGUESIA": "São Domingos de Benfica"
        },
        {
            "type": "Escolas_Privadas_Pré-Escolar",
            "Longitude": -9.12923023518933,
            "Latitude": 38.7378461273383,
            "INF_NOME": "Colégio O Pelicano",
            "INF_MORADA": "Alameda Dom Afonso Henriques, 4",
            "INF_TELEFONE": "218454550",
            "INF_EMAIL": "geral@colegiopelicano.pt",
            "INF_SITE": "https://www.colegiopelicano.pt/",
            "FREGUESIA": "Areeiro"
        },
        {
            "type": "Escolas_Privadas_Pré-Escolar",
            "Longitude": -9.16626307330277,
            "Latitude": 38.7584657012816,
            "INF_NOME": "Colégio dos Arcos",
            "INF_MORADA": "Avenida Ventura Terra, 12",
            "INF_TELEFONE": "217583522",
            "INF_EMAIL": "cl.arcos@escolas.min-edu.pt",
            "INF_SITE": "https://www.colegiodosarcos.com/",
            "FREGUESIA": "Lumiar"
        },
        {
            "type": "Escolas_Privadas_Pré-Escolar",
            "Longitude": -9.09650255858862,
            "Latitude": 38.7700614550035,
            "INF_NOME": "Creche e Aparece",
            "INF_MORADA": "Rua do Polo Norte, n.º 1.06.1.3 - Fração B - Parque das Nações",
            "INF_TELEFONE": "214066474",
            "INF_EMAIL": "geral@creche-e-aparece.com",
            "INF_SITE": "http://www.creche-e-aparece.com/",
            "FREGUESIA": "Parque das Nações"
        },
        {
            "type": "Escolas_Privadas_Pré-Escolar",
            "Longitude": -9.14025280024235,
            "Latitude": 38.7329785169565,
            "INF_NOME": "Colégio de Talentos",
            "INF_MORADA": "Rua de Ponta Delgada, 1",
            "INF_TELEFONE": "911108008",
            "INF_EMAIL": "joao.simoes@adventistas.org.pt",
            "INF_SITE": "https://www.ctalentos.pt/",
            "FREGUESIA": "Arroios"
        },
        {
            "type": "Escolas_Privadas_Pré-Escolar",
            "Longitude": -9.15490654401144,
            "Latitude": 38.7150162127592,
            "INF_NOME": "Colégio Luso-Suiço",
            "INF_MORADA": "Rua de Santo Amaro, 18",
            "INF_TELEFONE": "213906979",
            "INF_EMAIL": "geral@colegiolusosuico.com",
            "INF_SITE": "https://colegiolusosuico.com/",
            "FREGUESIA": "Campo de Ourique"
        },
        {
            "type": "Escolas_Privadas_Pré-Escolar",
            "Longitude": -9.09696768924731,
            "Latitude": 38.7855742449345,
            "INF_NOME": "Colégio Oriente",
            "INF_MORADA": "Rua do Príncipe do Mónaco, 1-1B",
            "INF_TELEFONE": "218933160",
            "INF_EMAIL": "cl.oriente@escolas.min-edu.pt",
            "INF_SITE": "https://www.coriente.pt/",
            "FREGUESIA": "Parque das Nações"
        },
        {
            "type": "Escolas_Privadas_Pré-Escolar",
            "Longitude": -9.17903358037572,
            "Latitude": 38.7551440611507,
            "INF_NOME": "Colégio Caravela",
            "INF_MORADA": "Rua dos Soeiros, 331, 1.º",
            "INF_TELEFONE": "217261742",
            "INF_EMAIL": "colegiocaravela@sapo.pt",
            "INF_SITE": "https://colegiocaravela.pt/",
            "FREGUESIA": "São Domingos de Benfica"
        },
        {
            "type": "Escolas_Privadas_Pré-Escolar",
            "Longitude": -9.09833592141453,
            "Latitude": 38.7589642553237,
            "INF_NOME": "Externato João XXIII",
            "INF_MORADA": "Rua Corsário das Ilhas",
            "INF_TELEFONE": "218510363",
            "INF_EMAIL": "ebm.n3010.joaoxxiii@escolas.min-edu.pt",
            "INF_SITE": "https://externatojoao23.edu.pt",
            "FREGUESIA": "Parque das Nações"
        },
        {
            "type": "Escolas_Privadas_Pré-Escolar",
            "Longitude": -9.12759462150427,
            "Latitude": 38.7325862825405,
            "INF_NOME": "Externato Santa Francisca",
            "INF_MORADA": "Rua Sabino de Sousa 19, 1º",
            "INF_TELEFONE": "218132139",
            "INF_EMAIL": "ext.santafrancisca@escolas.min-edu.pt",
            "INF_SITE": "http://www.esfrancisca.pt",
            "FREGUESIA": "Penha de França"
        },
        {
            "type": "Escolas_Privadas_Pré-Escolar",
            "Longitude": -9.14283994104301,
            "Latitude": 38.7388310391904,
            "INF_NOME": "Externato Santa Teresinha de Lisieux",
            "INF_MORADA": "Avenida Visconde de Valmor 3, R/C",
            "INF_TELEFONE": "217963533",
            "INF_EMAIL": "ext.stdelisieux@escolas.min-edu.pt",
            "INF_SITE": null,
            "FREGUESIA": "Avenidas Novas"
        },
        {
            "type": "Escolas_Privadas_Pré-Escolar",
            "Longitude": -9.21347172673569,
            "Latitude": 38.7046142005953,
            "INF_NOME": "Externato Alfredo Binet",
            "INF_MORADA": "Rua Paulo da Gama, 14-14B",
            "INF_TELEFONE": "213014247",
            "INF_EMAIL": "ext.alfredobinet@escolas.min-edu.pt",
            "INF_SITE": "https://www.alfredbinet.com.pt/",
            "FREGUESIA": "Belém"
        },
        {
            "type": "Escolas_Privadas_Pré-Escolar",
            "Longitude": -9.13360622020273,
            "Latitude": 38.7476248430381,
            "INF_NOME": "Externato O Barquinho",
            "INF_MORADA": "Rua António Andrade, 12-12A",
            "INF_TELEFONE": "218487246",
            "INF_EMAIL": "ext.obarquinholisboa@escolas.min-edu.pt",
            "INF_SITE": "https://www.externatobarquinho.com/",
            "FREGUESIA": "Alvalade"
        },
        {
            "type": "Escolas_Privadas_Pré-Escolar",
            "Longitude": -9.13401897406312,
            "Latitude": 38.7529660478688,
            "INF_NOME": "Escola Montessori São Lourenço",
            "INF_MORADA": "Rua Dom Pedro de Cristo, 18",
            "INF_TELEFONE": "930551522",
            "INF_EMAIL": "oateliermontessori@gmail.com",
            "INF_SITE": "ateliermontessori.org",
            "FREGUESIA": "Alvalade"
        },
        {
            "type": "Escolas_Privadas_Pré-Escolar",
            "Longitude": -9.21904477315694,
            "Latitude": 38.6976087606931,
            "INF_NOME": "Externato Santa Maria de Belém",
            "INF_MORADA": "Rua Duarte Pacheco Pereira, 24",
            "INF_TELEFONE": "213011343",
            "INF_EMAIL": "ext.santamdebelem@escolas.min-edu.pt;",
            "INF_SITE": "https://externatosantamariadebelem.com/",
            "FREGUESIA": "Belém"
        },
        {
            "type": "Escolas_Privadas_Pré-Escolar",
            "Longitude": -9.13952932636456,
            "Latitude": 38.738325363823,
            "INF_NOME": "Externato Santa Maria do Mar",
            "INF_MORADA": "Avenida de António José de Almeida, 18",
            "INF_TELEFONE": "218407386",
            "INF_EMAIL": "sta.maria.mar@gmail.com",
            "INF_SITE": null,
            "FREGUESIA": "Areeiro"
        },
        {
            "type": "Escolas_Privadas_Pré-Escolar",
            "Longitude": -9.14892740579112,
            "Latitude": 38.783021320461,
            "INF_NOME": "Jardim de Infância da Associação Vida Cristã Filadélfia",
            "INF_MORADA": "Rua Bernardo Marques, Loja 4C",
            "INF_TELEFONE": "219488960",
            "INF_EMAIL": "ass.vcfiladelfia@escolas.min-edu.pt",
            "INF_SITE": "http://www.filadelfia.org",
            "FREGUESIA": "Santa Clara"
        },
        {
            "type": "Escolas_Privadas_Pré-Escolar",
            "Longitude": -9.15514483176671,
            "Latitude": 38.7757623272757,
            "INF_NOME": "Jardim de Infância do Centro Social da Musgueira",
            "INF_MORADA": "Rua Maria Margarida, 6",
            "INF_TELEFONE": "217591775",
            "INF_EMAIL": "geral@csmusgueira.pt",
            "INF_SITE": "https://centro-social-da-musgueira.webnode.pt/programas/",
            "FREGUESIA": "Lumiar"
        },
        {
            "type": "Escolas_Privadas_Pré-Escolar",
            "Longitude": -9.17114138378487,
            "Latitude": 38.7067986719758,
            "INF_NOME": "Jardim de Infância do Centro Social e Paroquial de São Francisco de Paula",
            "INF_MORADA": "Largo das Necessidades",
            "INF_TELEFONE": "213965210",
            "INF_EMAIL": "ji.cspsaofranciscodepaula@escolas.min-edu.pt;",
            "INF_SITE": null,
            "FREGUESIA": "Estrela"
        },
        {
            "type": "Escolas_Privadas_Pré-Escolar",
            "Longitude": -9.19134532559955,
            "Latitude": 38.76008210463,
            "INF_NOME": "Jardim de Infância do Centro Social Paroquial de Carnide",
            "INF_MORADA": "Estrada da Correia, 6",
            "INF_TELEFONE": "217112520",
            "INF_EMAIL": "csp.carnide@escolas.min-edu.pt",
            "INF_SITE": "http://cspcarnide.pt/",
            "FREGUESIA": "Carnide"
        },
        {
            "type": "Escolas_Privadas_Pré-Escolar",
            "Longitude": -9.19922194717746,
            "Latitude": 38.7066114804085,
            "INF_NOME": "Jardim de Infância Do Centro Social Paroquial de Nossa Senhora da Ajuda",
            "INF_MORADA": "Calçada da Ajuda 227, R/C",
            "INF_TELEFONE": "213631800",
            "INF_EMAIL": "centroajudainfantario@gmail.com",
            "INF_SITE": "https://cspnsa.pt/",
            "FREGUESIA": "Ajuda"
        },
        {
            "type": "Escolas_Privadas_Pré-Escolar",
            "Longitude": -9.13237675081892,
            "Latitude": 38.7444459589026,
            "INF_NOME": "Jardim de Infância da Casa do Menino Deus",
            "INF_MORADA": "Rua Agostinho Lourenço 325, R/C",
            "INF_TELEFONE": "218483678",
            "INF_EMAIL": "casameninodeus@escolas.min-edu.pt",
            "INF_SITE": "http://www.fundacaodpedroiv.org",
            "FREGUESIA": "Areeiro"
        },
        {
            "type": "Escolas_Privadas_Pré-Escolar",
            "Longitude": -9.12299157725698,
            "Latitude": 38.7604476978052,
            "INF_NOME": "NucliSol Jean Piaget Lóios",
            "INF_MORADA": "R. Pedro José Pezerat, 237, Piso 1 Lj - Bairro dos Lóios",
            "INF_TELEFONE": "210 149 381",
            "INF_EMAIL": "udi.loios@nuclisol.org",
            "INF_SITE": "https://www.nuclisol.org/",
            "FREGUESIA": "Marvila"
        },
        {
            "type": "Escolas_Privadas_Pré-Escolar",
            "Longitude": -9.15652770843294,
            "Latitude": 38.7660375107789,
            "INF_NOME": "NucliSol Jean Piaget  Lumiar",
            "INF_MORADA": "Rua Raúl Mesnier Du Ponsard 12-A",
            "INF_TELEFONE": "217 576 355",
            "INF_EMAIL": "udi.macedo@nuclisol.org",
            "INF_SITE": "https://www.nuclisol.org/",
            "FREGUESIA": "Lumiar"
        },
        {
            "type": "Escolas_Privadas_Pré-Escolar",
            "Longitude": -9.17185777783333,
            "Latitude": 38.7164849265459,
            "INF_NOME": "NucliSol Jean Piaget - Campo de Ourique",
            "INF_MORADA": "Rua Francisco Lacerda, Edifício Nuclisol",
            "INF_TELEFONE": "210108417",
            "INF_EMAIL": "udi.campoourique@nuclisol.org",
            "INF_SITE": "https://www.nuclisol.org/pt/nuclisol/contactos/",
            "FREGUESIA": "Campo de Ourique"
        },
        {
            "type": "Escolas_Privadas_Pré-Escolar",
            "Longitude": -9.14368064665924,
            "Latitude": 38.7109616681236,
            "INF_NOME": "Externato Casa do Menino Jesus - Associação de Socorro e Amparo",
            "INF_MORADA": "Rua do Norte, 14",
            "INF_TELEFONE": "217141517",
            "INF_EMAIL": "asamparo@hotmail.com",
            "INF_SITE": null,
            "FREGUESIA": "Misericórdia"
        },
        {
            "type": "Escolas_Privadas_Pré-Escolar",
            "Longitude": -9.1331660728232,
            "Latitude": 38.7284683403124,
            "INF_NOME": "Externato Escola da Restauração",
            "INF_MORADA": "Rua Cidade de Liverpool 8, R/C",
            "INF_TELEFONE": "218142350",
            "INF_EMAIL": "ext.escrestauracao@escolas.min-edu.pt;",
            "INF_SITE": null,
            "FREGUESIA": "Arroios"
        }
    ]
}